[
  {
    "id": "aed-1",
    "layer": "aed_location",
    "placeName": "國立臺灣師範大學校本部(和平東路1段162號)",
    "address": "和平東路1段162號",
    "districtCode": "63000030",
    "district": "大安區",
    "latitude": 25.02603,
    "longitude": 121.528283,
    "coordinateStatus": "valid",
    "placeCategory": "學校、大型集會場所",
    "placeType": "大專院校",
    "aedPlacementLocation": "校本部體育館2樓",
    "aedLocationDescription": "校本部體育館2樓體育室外",
    "source": "臺北市AED自動體外心臟去顫器設置地點"
  },
  {
    "id": "aed-2",
    "layer": "aed_location",
    "placeName": "國立故宮博物院",
    "address": "至善路2段221號",
    "districtCode": "63000110",
    "district": "士林區",
    "latitude": 25.10235,
    "longitude": 121.548432,
    "coordinateStatus": "valid",
    "placeCategory": "大型休閒場所",
    "placeType": "博物館",
    "aedPlacementLocation": "國立故宮博物院研究大樓1樓大廳",
    "aedLocationDescription": "國立故宮博物院右側第1棟研究大樓",
    "source": "臺北市AED自動體外心臟去顫器設置地點"
  },
  {
    "id": "aed-3",
    "layer": "aed_location",
    "placeName": "國立故宮博物院",
    "address": "至善路2段221號",
    "districtCode": "63000110",
    "district": "士林區",
    "latitude": 25.10235,
    "longitude": 121.548432,
    "coordinateStatus": "valid",
    "placeCategory": "大型休閒場所",
    "placeType": "博物館",
    "aedPlacementLocation": "地下一樓醫務室醫務室",
    "aedLocationDescription": "國立故宮博物院地下一樓醫務室",
    "source": "臺北市AED自動體外心臟去顫器設置地點"
  },
  {
    "id": "aed-4",
    "layer": "aed_location",
    "placeName": "中國文化大學 大恩館",
    "address": "華岡路55號",
    "districtCode": "63000110",
    "district": "士林區",
    "latitude": 25.136543,
    "longitude": 121.538749,
    "coordinateStatus": "valid",
    "placeCategory": "學校、大型集會場所",
    "placeType": "大專院校",
    "aedPlacementLocation": "大孝館(體育館)",
    "aedLocationDescription": "中國文化大學校本部大孝館(體育館)2樓，進入體育館後右手邊方向。",
    "source": "臺北市AED自動體外心臟去顫器設置地點"
  },
  {
    "id": "aed-5",
    "layer": "aed_location",
    "placeName": "福容大飯店股份有限公司台北分公司",
    "address": "建國南路一段266號",
    "districtCode": "63000030",
    "district": "大安區",
    "latitude": 25.036628,
    "longitude": 121.53721,
    "coordinateStatus": "valid",
    "placeCategory": "其他",
    "placeType": "其他場所",
    "aedPlacementLocation": "一樓大廳櫃檯前方",
    "aedLocationDescription": "大廳櫃檯前方",
    "source": "臺北市AED自動體外心臟去顫器設置地點"
  },
  {
    "id": "aed-6",
    "layer": "aed_location",
    "placeName": "市府轉運站",
    "address": "忠孝東路五段六號",
    "districtCode": "63000020",
    "district": "信義區",
    "latitude": 25.040914,
    "longitude": 121.565136,
    "coordinateStatus": "valid",
    "placeCategory": "交通要衝",
    "placeType": "轉運站",
    "aedPlacementLocation": "售票大廳",
    "aedLocationDescription": "售票大廳",
    "source": "臺北市AED自動體外心臟去顫器設置地點"
  },
  {
    "id": "aed-7",
    "layer": "aed_location",
    "placeName": "統一時代百貨台北店",
    "address": "忠孝東路5段8號",
    "districtCode": "63000020",
    "district": "信義區",
    "latitude": 25.040587,
    "longitude": 121.565888,
    "coordinateStatus": "valid",
    "placeCategory": "大型購物場所",
    "placeType": "百貨業",
    "aedPlacementLocation": "統一時代百貨台北店",
    "aedLocationDescription": "一樓服務台(忠孝東路側)",
    "source": "臺北市AED自動體外心臟去顫器設置地點"
  },
  {
    "id": "aed-8",
    "layer": "aed_location",
    "placeName": "交通部民用航空局臺北國際航空站(松山機場)",
    "address": "敦化北路340-9號",
    "districtCode": "63000010",
    "district": "松山區",
    "latitude": 25.06369,
    "longitude": 121.552742,
    "coordinateStatus": "valid",
    "placeCategory": "交通要衝",
    "placeType": "機場",
    "aedPlacementLocation": "國際線2樓內候機室(東)",
    "aedLocationDescription": "5、6登機門間",
    "source": "臺北市AED自動體外心臟去顫器設置地點"
  },
  {
    "id": "aed-9",
    "layer": "aed_location",
    "placeName": "財團法人臺灣敦睦聯誼會所屬作業組織圓山大飯店",
    "address": "中山北路4段1巷1號",
    "districtCode": "63000040",
    "district": "中山區",
    "latitude": 25.078611,
    "longitude": 121.526287,
    "coordinateStatus": "valid",
    "placeCategory": "旅宿場所",
    "placeType": "旅館",
    "aedPlacementLocation": "聯誼會游泳池",
    "aedLocationDescription": "在游泳池教練室",
    "source": "臺北市AED自動體外心臟去顫器設置地點"
  },
  {
    "id": "aed-10",
    "layer": "aed_location",
    "placeName": "國立臺灣大學(醫學校區)",
    "address": "仁愛路1段1號",
    "districtCode": "63000050",
    "district": "中正區",
    "latitude": 25.040772,
    "longitude": 121.520655,
    "coordinateStatus": "valid",
    "placeCategory": "學校、大型集會場所",
    "placeType": "大專院校",
    "aedPlacementLocation": "醫學體育館",
    "aedLocationDescription": "大門入口偏左側柱子前。",
    "source": "臺北市AED自動體外心臟去顫器設置地點"
  },
  {
    "id": "aed-11",
    "layer": "aed_location",
    "placeName": "國立臺灣大學(醫學校區)",
    "address": "仁愛路1段1號",
    "districtCode": "63000050",
    "district": "中正區",
    "latitude": 25.040772,
    "longitude": 121.520655,
    "coordinateStatus": "valid",
    "placeCategory": "學校、大型集會場所",
    "placeType": "大專院校",
    "aedPlacementLocation": "醫學基醫大樓",
    "aedLocationDescription": "仁愛路大門入口左側，駐警室櫃台前。",
    "source": "臺北市AED自動體外心臟去顫器設置地點"
  },
  {
    "id": "aed-12",
    "layer": "aed_location",
    "placeName": "國立臺灣大學(醫學校區)",
    "address": "仁愛路1段1號",
    "districtCode": "63000050",
    "district": "中正區",
    "latitude": 25.040772,
    "longitude": 121.520655,
    "coordinateStatus": "valid",
    "placeCategory": "學校、大型集會場所",
    "placeType": "大專院校",
    "aedPlacementLocation": "醫學國際會議中心",
    "aedLocationDescription": "基因體醫學研究中心大樓南側門入口走道上，駐警值班室前。",
    "source": "臺北市AED自動體外心臟去顫器設置地點"
  },
  {
    "id": "aed-13",
    "layer": "aed_location",
    "placeName": "中國文化大學推廣教育部 大新館",
    "address": "延平南路127號一樓",
    "districtCode": "63000050",
    "district": "中正區",
    "latitude": 25.038274,
    "longitude": 121.50869,
    "coordinateStatus": "valid",
    "placeCategory": "學校、大型集會場所",
    "placeType": "大專院校",
    "aedPlacementLocation": "大新館一樓",
    "aedLocationDescription": "中國文化大學推廣教育部大新館一樓處",
    "source": "臺北市AED自動體外心臟去顫器設置地點"
  },
  {
    "id": "aed-14",
    "layer": "aed_location",
    "placeName": "國立臺北護理健康大學",
    "address": "明德路365號",
    "districtCode": "63000120",
    "district": "北投區",
    "latitude": 25.117539,
    "longitude": 121.520679,
    "coordinateStatus": "valid",
    "placeCategory": "學校、大型集會場所",
    "placeType": "大專院校",
    "aedPlacementLocation": "科技大樓一樓健康中心對面",
    "aedLocationDescription": "置於科技大樓一樓健康中心對面",
    "source": "臺北市AED自動體外心臟去顫器設置地點"
  },
  {
    "id": "aed-15",
    "layer": "aed_location",
    "placeName": "中國文化大學推廣教育部 大夏館",
    "address": "建國南路2段231號1樓",
    "districtCode": "63000030",
    "district": "大安區",
    "latitude": 25.026078,
    "longitude": 121.538016,
    "coordinateStatus": "valid",
    "placeCategory": "學校、大型集會場所",
    "placeType": "大專院校",
    "aedPlacementLocation": "六樓電梯口處",
    "aedLocationDescription": "大夏館六樓電梯口處",
    "source": "臺北市AED自動體外心臟去顫器設置地點"
  },
  {
    "id": "aed-16",
    "layer": "aed_location",
    "placeName": "臺北市南港運動中心",
    "address": "玉成街69號",
    "districtCode": "63000090",
    "district": "南港區",
    "latitude": 25.048938,
    "longitude": 121.58184,
    "coordinateStatus": "valid",
    "placeCategory": "學校、大型集會場所",
    "placeType": "健身中心",
    "aedPlacementLocation": "二樓健身入口處",
    "aedLocationDescription": "臺北市南港運動中心二樓健身入口處",
    "source": "臺北市AED自動體外心臟去顫器設置地點"
  },
  {
    "id": "aed-17",
    "layer": "aed_location",
    "placeName": "台北凱撒大飯店",
    "address": "忠孝西路1段38號",
    "districtCode": "63000050",
    "district": "中正區",
    "latitude": 25.046259,
    "longitude": 121.516422,
    "coordinateStatus": "valid",
    "placeCategory": "旅宿場所",
    "placeType": "飯店",
    "aedPlacementLocation": "飯店大廳",
    "aedLocationDescription": "飯店大廳櫃檯旁",
    "source": "臺北市AED自動體外心臟去顫器設置地點"
  },
  {
    "id": "aed-18",
    "layer": "aed_location",
    "placeName": "臺北表演藝術中心",
    "address": "劍潭路1號",
    "districtCode": "63000110",
    "district": "士林區",
    "latitude": 25.0846148,
    "longitude": 121.5241572,
    "coordinateStatus": "valid",
    "placeCategory": "大型休閒場所",
    "placeType": "演藝廳",
    "aedPlacementLocation": "10樓辦公區",
    "aedLocationDescription": "10樓辦公區",
    "source": "臺北市AED自動體外心臟去顫器設置地點"
  },
  {
    "id": "aed-19",
    "layer": "aed_location",
    "placeName": "松山文創園區",
    "address": "光復南路133號",
    "districtCode": "63000020",
    "district": "信義區",
    "latitude": 25.044363,
    "longitude": 121.559901,
    "coordinateStatus": "valid",
    "placeCategory": "觀光旅遊地區",
    "placeType": "文化園區",
    "aedPlacementLocation": "育嬰室",
    "aedLocationDescription": "全家外置物櫃旁，水泥倉庫與育嬰室中間",
    "source": "臺北市AED自動體外心臟去顫器設置地點"
  },
  {
    "id": "aed-20",
    "layer": "aed_location",
    "placeName": "松山文創園區",
    "address": "光復南路133號",
    "districtCode": "63000020",
    "district": "信義區",
    "latitude": 25.044363,
    "longitude": 121.559901,
    "coordinateStatus": "valid",
    "placeCategory": "觀光旅遊地區",
    "placeType": "文化園區",
    "aedPlacementLocation": "二號倉庫旁",
    "aedLocationDescription": "園區二號倉庫旁",
    "source": "臺北市AED自動體外心臟去顫器設置地點"
  },
  {
    "id": "aed-21",
    "layer": "aed_location",
    "placeName": "交通部民用航空局臺北國際航空站(松山機場)",
    "address": "敦化北路340-9號",
    "districtCode": "63000010",
    "district": "松山區",
    "latitude": 25.06369,
    "longitude": 121.552742,
    "coordinateStatus": "valid",
    "placeCategory": "交通要衝",
    "placeType": "機場",
    "aedPlacementLocation": "國際線3樓環亞貴賓室",
    "aedLocationDescription": "國際線3樓環亞貴賓室外帶區旁",
    "source": "臺北市AED自動體外心臟去顫器設置地點"
  },
  {
    "id": "aed-22",
    "layer": "aed_location",
    "placeName": "中租控股股份有限公司",
    "address": "瑞光路362號",
    "districtCode": "63000100",
    "district": "內湖區",
    "latitude": 25.077252,
    "longitude": 121.572369,
    "coordinateStatus": "valid",
    "placeCategory": "其他",
    "placeType": "其他場所",
    "aedPlacementLocation": "公司咖啡廳門口",
    "aedLocationDescription": "放置於公司咖啡廳門口外之牆邊",
    "source": "臺北市AED自動體外心臟去顫器設置地點"
  },
  {
    "id": "aed-23",
    "layer": "aed_location",
    "placeName": "寒居酒店",
    "address": "松江路116號",
    "districtCode": "63000040",
    "district": "中山區",
    "latitude": 25.0518068,
    "longitude": 121.5325824,
    "coordinateStatus": "valid",
    "placeCategory": "旅宿場所",
    "placeType": "飯店",
    "aedPlacementLocation": "健身中心",
    "aedLocationDescription": "10樓",
    "source": "臺北市AED自動體外心臟去顫器設置地點"
  },
  {
    "id": "aed-24",
    "layer": "aed_location",
    "placeName": "寒居酒店",
    "address": "松江路116號",
    "districtCode": "63000040",
    "district": "中山區",
    "latitude": 25.0518068,
    "longitude": 121.5325824,
    "coordinateStatus": "valid",
    "placeCategory": "旅宿場所",
    "placeType": "飯店",
    "aedPlacementLocation": "飯店大廳",
    "aedLocationDescription": "1樓",
    "source": "臺北市AED自動體外心臟去顫器設置地點"
  },
  {
    "id": "aed-25",
    "layer": "aed_location",
    "placeName": "臺北表演藝術中心",
    "address": "劍潭路1號",
    "districtCode": "63000110",
    "district": "士林區",
    "latitude": 25.0846148,
    "longitude": 121.5241572,
    "coordinateStatus": "valid",
    "placeCategory": "大型休閒場所",
    "placeType": "演藝廳",
    "aedPlacementLocation": "5F 大劇院門口",
    "aedLocationDescription": "5F 大劇院門口",
    "source": "臺北市AED自動體外心臟去顫器設置地點"
  },
  {
    "id": "aed-26",
    "layer": "aed_location",
    "placeName": "日勝生加賀屋國際溫泉飯店",
    "address": "光明路236號",
    "districtCode": "63000120",
    "district": "北投區",
    "latitude": 25.135921,
    "longitude": 121.50689,
    "coordinateStatus": "valid",
    "placeCategory": "大型公眾浴場或溫泉區",
    "placeType": "溫泉區",
    "aedPlacementLocation": "2樓手扶梯上來右側",
    "aedLocationDescription": "2樓103吋電視旁",
    "source": "臺北市AED自動體外心臟去顫器設置地點"
  },
  {
    "id": "aed-27",
    "layer": "aed_location",
    "placeName": "臺北表演藝術中心",
    "address": "劍潭路1號",
    "districtCode": "63000110",
    "district": "士林區",
    "latitude": 25.0846148,
    "longitude": 121.5241572,
    "coordinateStatus": "valid",
    "placeCategory": "大型休閒場所",
    "placeType": "演藝廳",
    "aedPlacementLocation": "1F大廳 服務台旁",
    "aedLocationDescription": "1F大廳 服務台旁",
    "source": "臺北市AED自動體外心臟去顫器設置地點"
  },
  {
    "id": "aed-28",
    "layer": "aed_location",
    "placeName": "松山文創園區",
    "address": "光復南路133號",
    "districtCode": "63000020",
    "district": "信義區",
    "latitude": 25.044363,
    "longitude": 121.559901,
    "coordinateStatus": "valid",
    "placeCategory": "觀光旅遊地區",
    "placeType": "文化園區",
    "aedPlacementLocation": "北二門",
    "aedLocationDescription": "製菸工廠東向一樓，微熱山丘與垃圾廚房間",
    "source": "臺北市AED自動體外心臟去顫器設置地點"
  },
  {
    "id": "aed-29",
    "layer": "aed_location",
    "placeName": "臺北表演藝術中心",
    "address": "劍潭路1號",
    "districtCode": "63000110",
    "district": "士林區",
    "latitude": 25.0846148,
    "longitude": 121.5241572,
    "coordinateStatus": "valid",
    "placeCategory": "大型休閒場所",
    "placeType": "演藝廳",
    "aedPlacementLocation": "7樓後場",
    "aedLocationDescription": "7樓後場",
    "source": "臺北市AED自動體外心臟去顫器設置地點"
  },
  {
    "id": "aed-30",
    "layer": "aed_location",
    "placeName": "臺北表演藝術中心",
    "address": "劍潭路1號",
    "districtCode": "63000110",
    "district": "士林區",
    "latitude": 25.0846148,
    "longitude": 121.5241572,
    "coordinateStatus": "valid",
    "placeCategory": "大型休閒場所",
    "placeType": "演藝廳",
    "aedPlacementLocation": "本館4樓藍盒子劇場",
    "aedLocationDescription": "本館4樓藍盒子劇場",
    "source": "臺北市AED自動體外心臟去顫器設置地點"
  },
  {
    "id": "aed-31",
    "layer": "aed_location",
    "placeName": "臺北表演藝術中心",
    "address": "劍潭路1號",
    "districtCode": "63000110",
    "district": "士林區",
    "latitude": 25.0846148,
    "longitude": 121.5241572,
    "coordinateStatus": "valid",
    "placeCategory": "大型休閒場所",
    "placeType": "演藝廳",
    "aedPlacementLocation": "2樓大廳",
    "aedLocationDescription": "2樓大廳",
    "source": "臺北市AED自動體外心臟去顫器設置地點"
  },
  {
    "id": "aed-32",
    "layer": "aed_location",
    "placeName": "臺北市立信義幼兒園",
    "address": "基隆路一段364巷24號",
    "districtCode": "63000020",
    "district": "信義區",
    "latitude": 25.0349859,
    "longitude": 121.559024,
    "coordinateStatus": "valid",
    "placeCategory": "其他",
    "placeType": "其他場所",
    "aedPlacementLocation": "台北市信義區基隆路一段364巷24號",
    "aedLocationDescription": "辦公室暨健康中心",
    "source": "臺北市AED自動體外心臟去顫器設置地點"
  },
  {
    "id": "aed-33",
    "layer": "aed_location",
    "placeName": "台北世貿中心展覽大樓",
    "address": "信義路5段5號",
    "districtCode": "63000020",
    "district": "信義區",
    "latitude": 25.03317,
    "longitude": 121.562245,
    "coordinateStatus": "valid",
    "placeCategory": "其他",
    "placeType": "其他場所",
    "aedPlacementLocation": "世貿中心展覽大樓南大門哺乳室旁",
    "aedLocationDescription": "信義路南大門醫護室旁",
    "source": "臺北市AED自動體外心臟去顫器設置地點"
  },
  {
    "id": "aed-34",
    "layer": "aed_location",
    "placeName": "台北世貿中心展覽大樓",
    "address": "信義路5段5號",
    "districtCode": "63000020",
    "district": "信義區",
    "latitude": 25.03317,
    "longitude": 121.562245,
    "coordinateStatus": "valid",
    "placeCategory": "其他",
    "placeType": "其他場所",
    "aedPlacementLocation": "世貿中心展覽大樓西大門郵局旁",
    "aedLocationDescription": "世貿中心展覽大樓西大門郵局旁",
    "source": "臺北市AED自動體外心臟去顫器設置地點"
  },
  {
    "id": "aed-35",
    "layer": "aed_location",
    "placeName": "台北世貿中心展覽大樓",
    "address": "信義路5段5號",
    "districtCode": "63000020",
    "district": "信義區",
    "latitude": 25.03317,
    "longitude": 121.562245,
    "coordinateStatus": "valid",
    "placeCategory": "其他",
    "placeType": "其他場所",
    "aedPlacementLocation": "世貿中心展覽大樓二樓貴賓室旁",
    "aedLocationDescription": "世貿中心展覽大樓二樓貴賓室右側旁",
    "source": "臺北市AED自動體外心臟去顫器設置地點"
  },
  {
    "id": "aed-36",
    "layer": "aed_location",
    "placeName": "台北世貿中心展覽大樓",
    "address": "信義路5段5號",
    "districtCode": "63000020",
    "district": "信義區",
    "latitude": 25.03317,
    "longitude": 121.562245,
    "coordinateStatus": "valid",
    "placeCategory": "其他",
    "placeType": "其他場所",
    "aedPlacementLocation": "展覽大樓5樓D區21室前",
    "aedLocationDescription": "展覽大樓5樓D區21室展售間柱子旁旁",
    "source": "臺北市AED自動體外心臟去顫器設置地點"
  },
  {
    "id": "aed-37",
    "layer": "aed_location",
    "placeName": "外貿協會台北國際會議中心",
    "address": "信義路5段1號",
    "districtCode": "63000020",
    "district": "信義區",
    "latitude": 25.03369,
    "longitude": 121.561022,
    "coordinateStatus": "valid",
    "placeCategory": "大型休閒場所",
    "placeType": "演藝廳",
    "aedPlacementLocation": "1樓大廳服務台",
    "aedLocationDescription": "服務台旁邊",
    "source": "臺北市AED自動體外心臟去顫器設置地點"
  },
  {
    "id": "aed-38",
    "layer": "aed_location",
    "placeName": "台北世界貿易中心國際貿易大樓",
    "address": "基隆路1段333號",
    "districtCode": "63000020",
    "district": "信義區",
    "latitude": 25.034417,
    "longitude": 121.560814,
    "coordinateStatus": "valid",
    "placeCategory": "其他",
    "placeType": "其他場所",
    "aedPlacementLocation": "一樓大廳服務台",
    "aedLocationDescription": "一樓大廳24小時警衛服務台",
    "source": "臺北市AED自動體外心臟去顫器設置地點"
  },
  {
    "id": "aed-39",
    "layer": "aed_location",
    "placeName": "臺北農產運銷股份有限公司 總公司(第二果菜批發市場)",
    "address": "民族東路336號",
    "districtCode": "63000040",
    "district": "中山區",
    "latitude": 25.067471,
    "longitude": 121.537218,
    "coordinateStatus": "valid",
    "placeCategory": "其他",
    "placeType": "其他場所",
    "aedPlacementLocation": "中控室旁",
    "aedLocationDescription": "中控室旁",
    "source": "臺北市AED自動體外心臟去顫器設置地點"
  },
  {
    "id": "aed-40",
    "layer": "aed_location",
    "placeName": "臺北農產運銷股份有限公司 第一果菜批發市場",
    "address": "萬大路533號",
    "districtCode": "63000070",
    "district": "萬華區",
    "latitude": 25.016648,
    "longitude": 121.496902,
    "coordinateStatus": "valid",
    "placeCategory": "其他",
    "placeType": "其他場所",
    "aedPlacementLocation": "前大門一樓業管組辦公室",
    "aedLocationDescription": "臺北農產運銷股份有限公司\n第一果菜批發市場\n前大門一樓業管組辦公室",
    "source": "臺北市AED自動體外心臟去顫器設置地點"
  },
  {
    "id": "aed-41",
    "layer": "aed_location",
    "placeName": "Curves女性專用30分鐘健身中心捷運中山店",
    "address": "承德路一段77-1號2樓",
    "districtCode": "63000060",
    "district": "大同區",
    "latitude": 25.052264,
    "longitude": 121.517719,
    "coordinateStatus": "valid",
    "placeCategory": "學校、大型集會場所",
    "placeType": "健身房",
    "aedPlacementLocation": "店內",
    "aedLocationDescription": "店內靠承德路面",
    "source": "臺北市AED自動體外心臟去顫器設置地點"
  },
  {
    "id": "aed-42",
    "layer": "aed_location",
    "placeName": "香港商世界健身事業有限公司西門分公司",
    "address": "西寧南路36號B1",
    "districtCode": "63000070",
    "district": "萬華區",
    "latitude": 25.045226,
    "longitude": 121.506498,
    "coordinateStatus": "valid",
    "placeCategory": "學校、大型集會場所",
    "placeType": "健身房",
    "aedPlacementLocation": "會員休息區",
    "aedLocationDescription": "入口右轉沙發區旁",
    "source": "臺北市AED自動體外心臟去顫器設置地點"
  },
  {
    "id": "aed-43",
    "layer": "aed_location",
    "placeName": "香港商世界健身事業有限公司台北分公司",
    "address": "忠孝西路1段50號地下二樓",
    "districtCode": "63000050",
    "district": "中正區",
    "latitude": 25.04630432,
    "longitude": 121.515823,
    "coordinateStatus": "valid",
    "placeCategory": "學校、大型集會場所",
    "placeType": "健身房",
    "aedPlacementLocation": "忠孝西路店客服櫃台前方",
    "aedLocationDescription": "客服櫃台前方空曠處",
    "source": "臺北市AED自動體外心臟去顫器設置地點"
  },
  {
    "id": "aed-44",
    "layer": "aed_location",
    "placeName": "信義房屋股份有限公司",
    "address": "信義路五段100號1樓",
    "districtCode": "63000020",
    "district": "信義區",
    "latitude": 25.032515,
    "longitude": 121.565783,
    "coordinateStatus": "valid",
    "placeCategory": "其他",
    "placeType": "其他場所",
    "aedPlacementLocation": "1樓",
    "aedLocationDescription": "信義房屋(信義大樓1樓)",
    "source": "臺北市AED自動體外心臟去顫器設置地點"
  },
  {
    "id": "aed-45",
    "layer": "aed_location",
    "placeName": "大潤發流通事業股份有限公司南湖分公司",
    "address": "舊宗路1段188號",
    "districtCode": "63000100",
    "district": "內湖區",
    "latitude": 25.062902,
    "longitude": 121.575896,
    "coordinateStatus": "valid",
    "placeCategory": "大型購物場所",
    "placeType": "賣場",
    "aedPlacementLocation": "賣場的入口直走進來的正前方",
    "aedLocationDescription": "敘述(1):在賣場正門口走進來的牆壁上；星巴克的招牌斜對角。\n敘述(2):在自助榨果汁機的旁邊的牆上。\n敘述(3):於LEE服飾店的旁邊的牆上。",
    "source": "臺北市AED自動體外心臟去顫器設置地點"
  },
  {
    "id": "aed-46",
    "layer": "aed_location",
    "placeName": "香港商世界健身事業有限公司內湖分公司",
    "address": "康寧路3段72號6樓",
    "districtCode": "63000100",
    "district": "內湖區",
    "latitude": 25.070238,
    "longitude": 121.611276,
    "coordinateStatus": "valid",
    "placeCategory": "學校、大型集會場所",
    "placeType": "健身房",
    "aedPlacementLocation": "內湖店6樓心肺區",
    "aedLocationDescription": "6樓心肺區",
    "source": "臺北市AED自動體外心臟去顫器設置地點"
  },
  {
    "id": "aed-47",
    "layer": "aed_location",
    "placeName": "潤泰創新國際股份有限公司中崙分公司",
    "address": "八德路二段306號地下三樓",
    "districtCode": "63000040",
    "district": "中山區",
    "latitude": 25.046873,
    "longitude": 121.542555,
    "coordinateStatus": "valid",
    "placeCategory": "大型購物場所",
    "placeType": "商場",
    "aedPlacementLocation": "B2賣場出口",
    "aedLocationDescription": "B2賣場出口滅火器旁",
    "source": "臺北市AED自動體外心臟去顫器設置地點"
  },
  {
    "id": "aed-48",
    "layer": "aed_location",
    "placeName": "洛碁大飯店南港館",
    "address": "忠孝東路七段528號",
    "districtCode": "63000090",
    "district": "南港區",
    "latitude": 25.0523268,
    "longitude": 121.6115069,
    "coordinateStatus": "valid",
    "placeCategory": "旅宿場所",
    "placeType": "旅館",
    "aedPlacementLocation": "本館大廳座位區",
    "aedLocationDescription": "本館大廳座位區",
    "source": "臺北市AED自動體外心臟去顫器設置地點"
  },
  {
    "id": "aed-49",
    "layer": "aed_location",
    "placeName": "洛碁大飯店南京館",
    "address": "南京東路三段8號",
    "districtCode": "63000040",
    "district": "中山區",
    "latitude": 25.0517484,
    "longitude": 121.5373432,
    "coordinateStatus": "valid",
    "placeCategory": "旅宿場所",
    "placeType": "旅館",
    "aedPlacementLocation": "本館大廳座位區",
    "aedLocationDescription": "大廳門口與座位區",
    "source": "臺北市AED自動體外心臟去顫器設置地點"
  },
  {
    "id": "aed-50",
    "layer": "aed_location",
    "placeName": "京庚健康世界股份有限公司民生分公司",
    "address": "民生東路3段156號地下1樓",
    "districtCode": "63000010",
    "district": "松山區",
    "latitude": 25.057461,
    "longitude": 121.547572,
    "coordinateStatus": "valid",
    "placeCategory": "學校、大型集會場所",
    "placeType": "健身房",
    "aedPlacementLocation": "地下1樓入口左側",
    "aedLocationDescription": "放置於進入館內自動門左側",
    "source": "臺北市AED自動體外心臟去顫器設置地點"
  },
  {
    "id": "aed-51",
    "layer": "aed_location",
    "placeName": "教育部",
    "address": "中山南路5號",
    "districtCode": "63000050",
    "district": "中正區",
    "latitude": 25.04275,
    "longitude": 121.519083,
    "coordinateStatus": "valid",
    "placeCategory": "其他",
    "placeType": "其他場所",
    "aedPlacementLocation": "大廳右側",
    "aedLocationDescription": "中山南路5號大廳右側",
    "source": "臺北市AED自動體外心臟去顫器設置地點"
  },
  {
    "id": "aed-52",
    "layer": "aed_location",
    "placeName": "台北花園大酒店股份有限公司",
    "address": "中華路二段1號",
    "districtCode": "63000050",
    "district": "中正區",
    "latitude": 25.03645563,
    "longitude": 121.5068646,
    "coordinateStatus": "valid",
    "placeCategory": "旅宿場所",
    "placeType": "飯店",
    "aedPlacementLocation": "本館大廳",
    "aedLocationDescription": "本館大廳，櫃檯中心右前方，客梯旁",
    "source": "臺北市AED自動體外心臟去顫器設置地點"
  },
  {
    "id": "aed-53",
    "layer": "aed_location",
    "placeName": "臺北市政府環境保護局山豬窟游泳池館",
    "address": "舊莊街一段290巷32號",
    "districtCode": "63000090",
    "district": "南港區",
    "latitude": 25.032825,
    "longitude": 121.624634,
    "coordinateStatus": "valid",
    "placeCategory": "學校、大型集會場所",
    "placeType": "健身房",
    "aedPlacementLocation": "一樓大廳",
    "aedLocationDescription": "一樓大廳 大門正前方",
    "source": "臺北市AED自動體外心臟去顫器設置地點"
  },
  {
    "id": "aed-54",
    "layer": "aed_location",
    "placeName": "臺北市至善老人安養護中心",
    "address": "仰德大道二段二巷50號",
    "districtCode": "63000110",
    "district": "士林區",
    "latitude": 25.101951,
    "longitude": 121.543237,
    "coordinateStatus": "valid",
    "placeCategory": "其他",
    "placeType": "其他場所",
    "aedPlacementLocation": "中心大廳",
    "aedLocationDescription": "本中心一樓大廳",
    "source": "臺北市AED自動體外心臟去顫器設置地點"
  },
  {
    "id": "aed-55",
    "layer": "aed_location",
    "placeName": "臺北市士林區士東國民小學",
    "address": "中山北路六段392號",
    "districtCode": "63000110",
    "district": "士林區",
    "latitude": 25.112934,
    "longitude": 121.526814,
    "coordinateStatus": "valid",
    "placeCategory": "其他",
    "placeType": "其他場所",
    "aedPlacementLocation": "士東國小健康中心",
    "aedLocationDescription": "士東國小健康中心",
    "source": "臺北市AED自動體外心臟去顫器設置地點"
  },
  {
    "id": "aed-56",
    "layer": "aed_location",
    "placeName": "臺北南港展覽館1館",
    "address": "經貿二路1號",
    "districtCode": "63000090",
    "district": "南港區",
    "latitude": 25.056902,
    "longitude": 121.618175,
    "coordinateStatus": "valid",
    "placeCategory": "其他",
    "placeType": "其他場所",
    "aedPlacementLocation": "1樓大廳",
    "aedLocationDescription": "1樓大廳",
    "source": "臺北市AED自動體外心臟去顫器設置地點"
  },
  {
    "id": "aed-57",
    "layer": "aed_location",
    "placeName": "臺北南港展覽館1館",
    "address": "經貿二路1號",
    "districtCode": "63000090",
    "district": "南港區",
    "latitude": 25.056902,
    "longitude": 121.618175,
    "coordinateStatus": "valid",
    "placeCategory": "其他",
    "placeType": "其他場所",
    "aedPlacementLocation": "4樓服務台",
    "aedLocationDescription": "台北南港展覽館1館4樓服務台",
    "source": "臺北市AED自動體外心臟去顫器設置地點"
  },
  {
    "id": "aed-58",
    "layer": "aed_location",
    "placeName": "大潤發流通事業股份有限公司南湖分公司",
    "address": "舊宗路1段188號",
    "districtCode": "63000100",
    "district": "內湖區",
    "latitude": 25.062902,
    "longitude": 121.575896,
    "coordinateStatus": "valid",
    "placeCategory": "大型購物場所",
    "placeType": "賣場",
    "aedPlacementLocation": "3F未購物出口(食品入口)對面柱子上",
    "aedLocationDescription": "(1)3F未購物出口(食品入口)對面柱子上\n(2)3F賣場出入口旁\n(3)結帳區對面靠近出入口之柱子\n(4)堡獅龍服飾旁牆上",
    "source": "臺北市AED自動體外心臟去顫器設置地點"
  },
  {
    "id": "aed-59",
    "layer": "aed_location",
    "placeName": "西門就業服務站",
    "address": "峨嵋街81號",
    "districtCode": "63000070",
    "district": "萬華區",
    "latitude": 25.044067,
    "longitude": 121.505259,
    "coordinateStatus": "valid",
    "placeCategory": "其他",
    "placeType": "其他場所",
    "aedPlacementLocation": "西門就業服務站",
    "aedLocationDescription": "櫃台後方，後門左側",
    "source": "臺北市AED自動體外心臟去顫器設置地點"
  },
  {
    "id": "aed-60",
    "layer": "aed_location",
    "placeName": "統一大樓管理委員會",
    "address": "東興路8號",
    "districtCode": "63000010",
    "district": "松山區",
    "latitude": 25.050314,
    "longitude": 121.565037,
    "coordinateStatus": "valid",
    "placeCategory": "其他",
    "placeType": "其他場所",
    "aedPlacementLocation": "10樓梯廳",
    "aedLocationDescription": "10樓梯廳右側",
    "source": "臺北市AED自動體外心臟去顫器設置地點"
  },
  {
    "id": "aed-61",
    "layer": "aed_location",
    "placeName": "國立政治大學附設實驗國民小學",
    "address": "指南路三段12號",
    "districtCode": "63000080",
    "district": "文山區",
    "latitude": 24.984837,
    "longitude": 121.57996,
    "coordinateStatus": "valid",
    "placeCategory": "其他",
    "placeType": "其他場所",
    "aedPlacementLocation": "健康中心",
    "aedLocationDescription": "放置於健康中心一進門右手邊牆面上",
    "source": "臺北市AED自動體外心臟去顫器設置地點"
  },
  {
    "id": "aed-62",
    "layer": "aed_location",
    "placeName": "慈濟內湖聯絡處環保站",
    "address": "成功路5段168號",
    "districtCode": "63000100",
    "district": "內湖區",
    "latitude": 25.083426,
    "longitude": 121.605294,
    "coordinateStatus": "valid",
    "placeCategory": "其他",
    "placeType": "其他場所",
    "aedPlacementLocation": "環保站",
    "aedLocationDescription": "辦公室入口(血壓器旁)",
    "source": "臺北市AED自動體外心臟去顫器設置地點"
  },
  {
    "id": "aed-63",
    "layer": "aed_location",
    "placeName": "慈濟內湖聯絡處人文館",
    "address": "成功路5段168號",
    "districtCode": "63000100",
    "district": "內湖區",
    "latitude": 25.083426,
    "longitude": 121.605294,
    "coordinateStatus": "valid",
    "placeCategory": "其他",
    "placeType": "其他場所",
    "aedPlacementLocation": "人文館入口左側",
    "aedLocationDescription": "人文館入口左側",
    "source": "臺北市AED自動體外心臟去顫器設置地點"
  },
  {
    "id": "aed-64",
    "layer": "aed_location",
    "placeName": "臺北市立大學博愛校區",
    "address": "愛國西路1號",
    "districtCode": "63000050",
    "district": "中正區",
    "latitude": 25.037044,
    "longitude": 121.51333,
    "coordinateStatus": "valid",
    "placeCategory": "學校、大型集會場所",
    "placeType": "大專院校",
    "aedPlacementLocation": "勤樸樓一樓健康促進中心門外",
    "aedLocationDescription": "臺北市立大學博愛校區勤樸樓健康促進中心門外，本校24小時對外開放，可由愛國西路正門口進入。本校週一～週五08：00～17：00有受過AED訓練之護理人員值班。",
    "source": "臺北市AED自動體外心臟去顫器設置地點"
  },
  {
    "id": "aed-65",
    "layer": "aed_location",
    "placeName": "Curves女性專用30分鐘健身中心萬華青年公園店",
    "address": "青年路30巷2-3號1樓",
    "districtCode": "63000070",
    "district": "萬華區",
    "latitude": 25.025995,
    "longitude": 121.504789,
    "coordinateStatus": "valid",
    "placeCategory": "學校、大型集會場所",
    "placeType": "健身房",
    "aedPlacementLocation": "環狀運動圈內",
    "aedLocationDescription": "放置在環狀運動圈",
    "source": "臺北市AED自動體外心臟去顫器設置地點"
  },
  {
    "id": "aed-66",
    "layer": "aed_location",
    "placeName": "臺北市議會",
    "address": "仁愛路4段507號",
    "districtCode": "63000020",
    "district": "信義區",
    "latitude": 25.038463,
    "longitude": 121.562251,
    "coordinateStatus": "valid",
    "placeCategory": "學校、大型集會場所",
    "placeType": "議會",
    "aedPlacementLocation": "1樓大廳右側警衛台旁",
    "aedLocationDescription": "1樓大廳右側警衛台旁",
    "source": "臺北市AED自動體外心臟去顫器設置地點"
  },
  {
    "id": "aed-67",
    "layer": "aed_location",
    "placeName": "最高法院第二辦公室寶慶院區",
    "address": "長沙街一段27號",
    "districtCode": "63000050",
    "district": "中正區",
    "latitude": 25.040388,
    "longitude": 121.509748,
    "coordinateStatus": "valid",
    "placeCategory": "學校、大型集會場所",
    "placeType": "法院",
    "aedPlacementLocation": "最高法院第二辦公室寶慶院區",
    "aedLocationDescription": "進大門（警衛室）直走，上樓梯門口左邊",
    "source": "臺北市AED自動體外心臟去顫器設置地點"
  },
  {
    "id": "aed-68",
    "layer": "aed_location",
    "placeName": "國立臺灣科學教育館",
    "address": "士商路189號",
    "districtCode": "63000110",
    "district": "士林區",
    "latitude": 25.095757,
    "longitude": 121.516602,
    "coordinateStatus": "valid",
    "placeCategory": "大型休閒場所",
    "placeType": "博物館",
    "aedPlacementLocation": "本館1樓服務台旁",
    "aedLocationDescription": "本館一樓服務台旁",
    "source": "臺北市AED自動體外心臟去顫器設置地點"
  },
  {
    "id": "aed-69",
    "layer": "aed_location",
    "placeName": "凱羅斯健康有限公司（練健康)",
    "address": "南京東路三段29號B1",
    "districtCode": "63000040",
    "district": "中山區",
    "latitude": 25.052245,
    "longitude": 121.537984,
    "coordinateStatus": "valid",
    "placeCategory": "學校、大型集會場所",
    "placeType": "健身房",
    "aedPlacementLocation": "台北市中山區南京東路三段29號B1",
    "aedLocationDescription": "健身房地下一樓櫃台旁",
    "source": "臺北市AED自動體外心臟去顫器設置地點"
  },
  {
    "id": "aed-70",
    "layer": "aed_location",
    "placeName": "臺北市私立復興實驗高級中學",
    "address": "敦化南路一段262號",
    "districtCode": "63000030",
    "district": "大安區",
    "latitude": 25.039435,
    "longitude": 121.548432,
    "coordinateStatus": "valid",
    "placeCategory": "學校、大型集會場所",
    "placeType": "高中職",
    "aedPlacementLocation": "學校慎思樓四樓電梯口",
    "aedLocationDescription": "該處位於學校慎思樓四樓電梯口，為師生進出頻繁的要道，位置明顯。",
    "source": "臺北市AED自動體外心臟去顫器設置地點"
  },
  {
    "id": "aed-71",
    "layer": "aed_location",
    "placeName": "吸引力生活事業股份有限公司 ATT 4 FUN",
    "address": "松壽路12號",
    "districtCode": "63000020",
    "district": "信義區",
    "latitude": 25.035666,
    "longitude": 121.566075,
    "coordinateStatus": "valid",
    "placeCategory": "大型購物場所",
    "placeType": "百貨業",
    "aedPlacementLocation": "ATT 4 FUN B2F",
    "aedLocationDescription": "ATT 4 FUN B2F 客服中心外。",
    "source": "臺北市AED自動體外心臟去顫器設置地點"
  },
  {
    "id": "aed-72",
    "layer": "aed_location",
    "placeName": "幼華學校財團法人臺北市幼華高級中等學校",
    "address": "北投路二段55號",
    "districtCode": "63000120",
    "district": "北投區",
    "latitude": 25.133393,
    "longitude": 121.49689,
    "coordinateStatus": "valid",
    "placeCategory": "學校、大型集會場所",
    "placeType": "高中職",
    "aedPlacementLocation": "教學大樓保健室內",
    "aedLocationDescription": "保健室內",
    "source": "臺北市AED自動體外心臟去顫器設置地點"
  },
  {
    "id": "aed-73",
    "layer": "aed_location",
    "placeName": "臺灣土地銀行和平分行",
    "address": "和平東路三段15號",
    "districtCode": "63000030",
    "district": "大安區",
    "latitude": 25.02483356,
    "longitude": 121.547465,
    "coordinateStatus": "valid",
    "placeCategory": "其他",
    "placeType": "其他場所",
    "aedPlacementLocation": "1樓營業廳",
    "aedLocationDescription": "1樓營業廳",
    "source": "臺北市AED自動體外心臟去顫器設置地點"
  },
  {
    "id": "aed-74",
    "layer": "aed_location",
    "placeName": "台北遠東香格里拉/Shangri-La Far Eastern Taipei (鼎鼎大飯店股份有限公司)",
    "address": "敦化南路二段201號",
    "districtCode": "63000030",
    "district": "大安區",
    "latitude": 25.026612,
    "longitude": 121.549282,
    "coordinateStatus": "valid",
    "placeCategory": "旅宿場所",
    "placeType": "飯店",
    "aedPlacementLocation": "1F 客務部辦公室",
    "aedLocationDescription": "一樓客務部辦公室影印機旁",
    "source": "臺北市AED自動體外心臟去顫器設置地點"
  },
  {
    "id": "aed-75",
    "layer": "aed_location",
    "placeName": "美麗華大直影城",
    "address": "敬業三路22號6樓",
    "districtCode": "63000040",
    "district": "中山區",
    "latitude": 25.08324,
    "longitude": 121.557863,
    "coordinateStatus": "valid",
    "placeCategory": "大型休閒場所",
    "placeType": "電影片映演場所(戲院、電影院)",
    "aedPlacementLocation": "6樓客梯左方",
    "aedLocationDescription": "美麗華大直影城6樓客梯左方",
    "source": "臺北市AED自動體外心臟去顫器設置地點"
  },
  {
    "id": "aed-76",
    "layer": "aed_location",
    "placeName": "管家婆科技股份有限公司(禮客時尚館公館店)",
    "address": "思源街16號1F",
    "districtCode": "63000050",
    "district": "中正區",
    "latitude": 25.0143914,
    "longitude": 121.5307463,
    "coordinateStatus": "valid",
    "placeCategory": "大型購物場所",
    "placeType": "百貨業",
    "aedPlacementLocation": "特賣區正對面走道上",
    "aedLocationDescription": "禮客公館店出入口旁，正對男廁門口處",
    "source": "臺北市AED自動體外心臟去顫器設置地點"
  },
  {
    "id": "aed-77",
    "layer": "aed_location",
    "placeName": "禮客Outlet內湖一館",
    "address": "民善街205號1F",
    "districtCode": "63000100",
    "district": "內湖區",
    "latitude": 25.064243,
    "longitude": 121.57476,
    "coordinateStatus": "valid",
    "placeCategory": "大型購物場所",
    "placeType": "商場",
    "aedPlacementLocation": "禮客內湖一館西雅圖旁",
    "aedLocationDescription": "禮客內湖一館西雅圖旁",
    "source": "臺北市AED自動體外心臟去顫器設置地點"
  },
  {
    "id": "aed-78",
    "layer": "aed_location",
    "placeName": "三軍總醫院汀州院區",
    "address": "汀州路三段40號",
    "districtCode": "63000050",
    "district": "中正區",
    "latitude": 25.016476,
    "longitude": 121.529829,
    "coordinateStatus": "valid",
    "placeCategory": "其他",
    "placeType": "其他場所",
    "aedPlacementLocation": "綜合大樓1樓門診大廳",
    "aedLocationDescription": "1樓門診大廳",
    "source": "臺北市AED自動體外心臟去顫器設置地點"
  },
  {
    "id": "aed-79",
    "layer": "aed_location",
    "placeName": "三軍總醫院汀州院區",
    "address": "汀州路三段40號",
    "districtCode": "63000050",
    "district": "中正區",
    "latitude": 25.016476,
    "longitude": 121.529829,
    "coordinateStatus": "valid",
    "placeCategory": "其他",
    "placeType": "其他場所",
    "aedPlacementLocation": "綜合大樓2樓大廳",
    "aedLocationDescription": "二樓大廳，汀州行政組門口右側",
    "source": "臺北市AED自動體外心臟去顫器設置地點"
  },
  {
    "id": "aed-80",
    "layer": "aed_location",
    "placeName": "三軍總醫院汀州院區",
    "address": "汀州路三段40號",
    "districtCode": "63000050",
    "district": "中正區",
    "latitude": 25.016476,
    "longitude": 121.529829,
    "coordinateStatus": "valid",
    "placeCategory": "其他",
    "placeType": "其他場所",
    "aedPlacementLocation": "介壽大樓1樓大廳",
    "aedLocationDescription": "介壽大樓1樓大廳",
    "source": "臺北市AED自動體外心臟去顫器設置地點"
  },
  {
    "id": "aed-81",
    "layer": "aed_location",
    "placeName": "大同大學",
    "address": "中山北路3段40號",
    "districtCode": "63000040",
    "district": "中山區",
    "latitude": 25.06684013,
    "longitude": 121.5222096,
    "coordinateStatus": "valid",
    "placeCategory": "學校、大型集會場所",
    "placeType": "大專院校",
    "aedPlacementLocation": "德惠宿舍",
    "aedLocationDescription": "服務台",
    "source": "臺北市AED自動體外心臟去顫器設置地點"
  },
  {
    "id": "aed-82",
    "layer": "aed_location",
    "placeName": "財團法人台北市松山慈祐宮",
    "address": "八德路4段761號",
    "districtCode": "63000010",
    "district": "松山區",
    "latitude": 25.051054,
    "longitude": 121.577742,
    "coordinateStatus": "valid",
    "placeCategory": "其他",
    "placeType": "其他場所",
    "aedPlacementLocation": "服務台正前方",
    "aedLocationDescription": "服務台正前方",
    "source": "臺北市AED自動體外心臟去顫器設置地點"
  },
  {
    "id": "aed-83",
    "layer": "aed_location",
    "placeName": "松山慈惠堂",
    "address": "福德街251巷33號",
    "districtCode": "63000020",
    "district": "信義區",
    "latitude": 25.03652,
    "longitude": 121.587484,
    "coordinateStatus": "valid",
    "placeCategory": "其他",
    "placeType": "其他場所",
    "aedPlacementLocation": "服務台外左側",
    "aedLocationDescription": "服務台外左側",
    "source": "臺北市AED自動體外心臟去顫器設置地點"
  },
  {
    "id": "aed-84",
    "layer": "aed_location",
    "placeName": "台北美國學校",
    "address": "11152 中山北路六段 800號",
    "districtCode": "63000110",
    "district": "士林區",
    "latitude": 25.1164004,
    "longitude": 121.5301123,
    "coordinateStatus": "valid",
    "placeCategory": "學校、大型集會場所",
    "placeType": "高中職",
    "aedPlacementLocation": "LS Playground Entrance",
    "aedLocationDescription": "1st ?oor end of the hallway towards the lower school playground",
    "source": "臺北市AED自動體外心臟去顫器設置地點"
  },
  {
    "id": "aed-85",
    "layer": "aed_location",
    "placeName": "台北美國學校",
    "address": "11152 中山北路六段 800號",
    "districtCode": "63000110",
    "district": "士林區",
    "latitude": 25.1164004,
    "longitude": 121.5301123,
    "coordinateStatus": "valid",
    "placeCategory": "學校、大型集會場所",
    "placeType": "高中職",
    "aedPlacementLocation": "US Entrance Foyer",
    "aedLocationDescription": "2nd ?oor left side of the atrium beside counselor o?ce",
    "source": "臺北市AED自動體外心臟去顫器設置地點"
  },
  {
    "id": "aed-86",
    "layer": "aed_location",
    "placeName": "彩色人生興業股份有限公司(三二行館)",
    "address": "中山路32號",
    "districtCode": "63000120",
    "district": "北投區",
    "latitude": 25.137778,
    "longitude": 121.510497,
    "coordinateStatus": "valid",
    "placeCategory": "大型公眾浴場或溫泉區",
    "placeType": "大型公眾浴場",
    "aedPlacementLocation": "二樓迎賓櫃檯旁",
    "aedLocationDescription": "迎賓大門貴賓休息區旁",
    "source": "臺北市AED自動體外心臟去顫器設置地點"
  },
  {
    "id": "aed-87",
    "layer": "aed_location",
    "placeName": "彩色人生興業股份有限公司(三二行館)",
    "address": "中山路32號",
    "districtCode": "63000120",
    "district": "北投區",
    "latitude": 25.137778,
    "longitude": 121.510497,
    "coordinateStatus": "valid",
    "placeCategory": "大型公眾浴場或溫泉區",
    "placeType": "大型公眾浴場",
    "aedPlacementLocation": "3F VIP室",
    "aedLocationDescription": "3F貴賓專屬湯屋",
    "source": "臺北市AED自動體外心臟去顫器設置地點"
  },
  {
    "id": "aed-88",
    "layer": "aed_location",
    "placeName": "台北偶戲館",
    "address": "市民大道五段99號2樓",
    "districtCode": "63000010",
    "district": "松山區",
    "latitude": 25.047712,
    "longitude": 121.561213,
    "coordinateStatus": "valid",
    "placeCategory": "大型休閒場所",
    "placeType": "博物館",
    "aedPlacementLocation": "2樓展場大門旁",
    "aedLocationDescription": "2樓展場",
    "source": "臺北市AED自動體外心臟去顫器設置地點"
  },
  {
    "id": "aed-89",
    "layer": "aed_location",
    "placeName": "臺北市立萬芳高級中學",
    "address": "興隆路3段115巷1號",
    "districtCode": "63000080",
    "district": "文山區",
    "latitude": 25.000625,
    "longitude": 121.558914,
    "coordinateStatus": "valid",
    "placeCategory": "學校、大型集會場所",
    "placeType": "高中職",
    "aedPlacementLocation": "警衛室",
    "aedLocationDescription": "臺北市立萬芳高級中學警衛室",
    "source": "臺北市AED自動體外心臟去顫器設置地點"
  },
  {
    "id": "aed-90",
    "layer": "aed_location",
    "placeName": "臺北市文山區戶政事務所（景美辦事處）",
    "address": "興隆路二段160號3樓",
    "districtCode": "63000080",
    "district": "文山區",
    "latitude": 25.001643,
    "longitude": 121.551576,
    "coordinateStatus": "valid",
    "placeCategory": "其他",
    "placeType": "其他場所",
    "aedPlacementLocation": "3樓戶政事務所民眾等待區",
    "aedLocationDescription": "放置於三樓戶政事務所民眾等待區",
    "source": "臺北市AED自動體外心臟去顫器設置地點"
  },
  {
    "id": "aed-91",
    "layer": "aed_location",
    "placeName": "臺北市南港區公所",
    "address": "南港路1段360號",
    "districtCode": "63000090",
    "district": "南港區",
    "latitude": 25.054514,
    "longitude": 121.606781,
    "coordinateStatus": "valid",
    "placeCategory": "其他",
    "placeType": "其他場所",
    "aedPlacementLocation": "2樓服務台旁",
    "aedLocationDescription": "2樓服務台旁",
    "source": "臺北市AED自動體外心臟去顫器設置地點"
  },
  {
    "id": "aed-92",
    "layer": "aed_location",
    "placeName": "臺北市立麗山國民中學",
    "address": "內湖路一段629巷42號",
    "districtCode": "63000100",
    "district": "內湖區",
    "latitude": 25.081617,
    "longitude": 121.575688,
    "coordinateStatus": "valid",
    "placeCategory": "其他",
    "placeType": "其他場所",
    "aedPlacementLocation": "健康中心",
    "aedLocationDescription": "健康中心內",
    "source": "臺北市AED自動體外心臟去顫器設置地點"
  },
  {
    "id": "aed-93",
    "layer": "aed_location",
    "placeName": "臺北市內湖區公所",
    "address": "民權東路六段99號",
    "districtCode": "63000100",
    "district": "內湖區",
    "latitude": 25.069231,
    "longitude": 121.589099,
    "coordinateStatus": "valid",
    "placeCategory": "其他",
    "placeType": "其他場所",
    "aedPlacementLocation": "1樓駐警台旁",
    "aedLocationDescription": "臺北市內湖區行政中心大樓1樓駐警台旁",
    "source": "臺北市AED自動體外心臟去顫器設置地點"
  },
  {
    "id": "aed-94",
    "layer": "aed_location",
    "placeName": "臺北市立松山高級中學",
    "address": "基隆路一段156號",
    "districtCode": "63000020",
    "district": "信義區",
    "latitude": 25.043646,
    "longitude": 121.565588,
    "coordinateStatus": "valid",
    "placeCategory": "學校、大型集會場所",
    "placeType": "高中職",
    "aedPlacementLocation": "本校穿堂",
    "aedLocationDescription": "一進入學校大門，即可看見穿堂，AED設置於穿堂右側走道上。",
    "source": "臺北市AED自動體外心臟去顫器設置地點"
  },
  {
    "id": "aed-95",
    "layer": "aed_location",
    "placeName": "臺北市大同區戶政事務所",
    "address": "昌吉街57號三樓之1",
    "districtCode": "63000060",
    "district": "大同區",
    "latitude": 25.06606,
    "longitude": 121.515119,
    "coordinateStatus": "valid",
    "placeCategory": "其他",
    "placeType": "其他場所",
    "aedPlacementLocation": "大門入口明顯處",
    "aedLocationDescription": "大門入口明顯處",
    "source": "臺北市AED自動體外心臟去顫器設置地點"
  },
  {
    "id": "aed-96",
    "layer": "aed_location",
    "placeName": "臺北市大同區公所",
    "address": "昌吉街57號4樓",
    "districtCode": "63000060",
    "district": "大同區",
    "latitude": 25.066061,
    "longitude": 121.515106,
    "coordinateStatus": "valid",
    "placeCategory": "其他",
    "placeType": "其他場所",
    "aedPlacementLocation": "為民服務區(西側入口)",
    "aedLocationDescription": "臺北市大同區公所為民服務區(西側入口)",
    "source": "臺北市AED自動體外心臟去顫器設置地點"
  },
  {
    "id": "aed-97",
    "layer": "aed_location",
    "placeName": "臺北市大同運動中心",
    "address": "大龍街51號",
    "districtCode": "63000060",
    "district": "大同區",
    "latitude": 25.064769,
    "longitude": 121.516146,
    "coordinateStatus": "valid",
    "placeCategory": "學校、大型集會場所",
    "placeType": "健身中心",
    "aedPlacementLocation": "B2泳池館救護站",
    "aedLocationDescription": "臺北市大同運動中心B2泳池館\n救護站",
    "source": "臺北市AED自動體外心臟去顫器設置地點"
  },
  {
    "id": "aed-98",
    "layer": "aed_location",
    "placeName": "臺北市松山區戶政事務所",
    "address": "八德路4段692號4樓",
    "districtCode": "63000010",
    "district": "松山區",
    "latitude": 25.049907,
    "longitude": 121.57726,
    "coordinateStatus": "valid",
    "placeCategory": "其他",
    "placeType": "其他場所",
    "aedPlacementLocation": "4樓入口處進門右側服務檯內",
    "aedLocationDescription": "臺北市松山區戶政事務所4樓入口處進門右側服務檯內。",
    "source": "臺北市AED自動體外心臟去顫器設置地點"
  },
  {
    "id": "aed-99",
    "layer": "aed_location",
    "placeName": "臺北市南港運動中心",
    "address": "玉成街69號",
    "districtCode": "63000090",
    "district": "南港區",
    "latitude": 25.048938,
    "longitude": 121.58184,
    "coordinateStatus": "valid",
    "placeCategory": "學校、大型集會場所",
    "placeType": "健身中心",
    "aedPlacementLocation": "六樓羽球場",
    "aedLocationDescription": "臺北市南港運動中心六樓羽球場",
    "source": "臺北市AED自動體外心臟去顫器設置地點"
  },
  {
    "id": "aed-100",
    "layer": "aed_location",
    "placeName": "臺北市松山區公所",
    "address": "八德路4段692號7樓",
    "districtCode": "63000010",
    "district": "松山區",
    "latitude": 25.049768,
    "longitude": 121.577126,
    "coordinateStatus": "valid",
    "placeCategory": "其他",
    "placeType": "其他場所",
    "aedPlacementLocation": "7樓電梯口",
    "aedLocationDescription": "7樓電梯出口左側。",
    "source": "臺北市AED自動體外心臟去顫器設置地點"
  },
  {
    "id": "aed-101",
    "layer": "aed_location",
    "placeName": "臺北市寧夏商圈發展協會",
    "address": "位於民生西路至南京西路間。",
    "districtCode": "63000060",
    "district": "大同區",
    "latitude": 25.062724,
    "longitude": 121.511306,
    "coordinateStatus": "valid",
    "placeCategory": "其他",
    "placeType": "其他場所",
    "aedPlacementLocation": "台北市寧夏夜市協會",
    "aedLocationDescription": "台北市大同區寧夏路58號2樓",
    "source": "臺北市AED自動體外心臟去顫器設置地點"
  },
  {
    "id": "aed-102",
    "layer": "aed_location",
    "placeName": "臺北市信義運動中心",
    "address": "松勤街100號",
    "districtCode": "63000020",
    "district": "信義區",
    "latitude": 25.03180456,
    "longitude": 121.5667558,
    "coordinateStatus": "valid",
    "placeCategory": "學校、大型集會場所",
    "placeType": "健身中心",
    "aedPlacementLocation": "本館四樓",
    "aedLocationDescription": "本館四樓男淋浴室入口處",
    "source": "臺北市AED自動體外心臟去顫器設置地點"
  },
  {
    "id": "aed-103",
    "layer": "aed_location",
    "placeName": "臺北市大安區戶政事務所",
    "address": "新生南路二段86號一樓",
    "districtCode": "63000030",
    "district": "大安區",
    "latitude": 25.02642,
    "longitude": 121.534511,
    "coordinateStatus": "valid",
    "placeCategory": "其他",
    "placeType": "其他場所",
    "aedPlacementLocation": "一樓志工服務台旁",
    "aedLocationDescription": "新生南路二段86號一樓",
    "source": "臺北市AED自動體外心臟去顫器設置地點"
  },
  {
    "id": "aed-104",
    "layer": "aed_location",
    "placeName": "臺北市中正區戶政事務所",
    "address": "羅斯福路一段8號5樓",
    "districtCode": "63000050",
    "district": "中正區",
    "latitude": 25.0326066,
    "longitude": 121.5180767,
    "coordinateStatus": "valid",
    "placeCategory": "其他",
    "placeType": "其他場所",
    "aedPlacementLocation": "AED放置於5樓電梯出來後往前走進入大廳左手邊",
    "aedLocationDescription": "AED放置於5樓電梯出來後往前走進入大廳左手邊",
    "source": "臺北市AED自動體外心臟去顫器設置地點"
  },
  {
    "id": "aed-105",
    "layer": "aed_location",
    "placeName": "臺北市中正區公所",
    "address": "羅斯福路一段8號6樓",
    "districtCode": "63000050",
    "district": "中正區",
    "latitude": 25.032193,
    "longitude": 121.518325,
    "coordinateStatus": "valid",
    "placeCategory": "其他",
    "placeType": "其他場所",
    "aedPlacementLocation": "6樓洽公區前梯廳",
    "aedLocationDescription": "臺北市中正區公所6樓洽公區前梯廳(進門左側)",
    "source": "臺北市AED自動體外心臟去顫器設置地點"
  },
  {
    "id": "aed-106",
    "layer": "aed_location",
    "placeName": "臺北市大安區公所",
    "address": "新生南路2段86號",
    "districtCode": "63000030",
    "district": "大安區",
    "latitude": 25.02642,
    "longitude": 121.534511,
    "coordinateStatus": "valid",
    "placeCategory": "其他",
    "placeType": "其他場所",
    "aedPlacementLocation": "區公所8樓大廳(電梯出口)",
    "aedLocationDescription": "臺北市大安區公所8樓大廳",
    "source": "臺北市AED自動體外心臟去顫器設置地點"
  },
  {
    "id": "aed-107",
    "layer": "aed_location",
    "placeName": "臺北市立大安高級工業職業學校",
    "address": "復興南路2段52號",
    "districtCode": "63000030",
    "district": "大安區",
    "latitude": 25.032033,
    "longitude": 121.54336,
    "coordinateStatus": "valid",
    "placeCategory": "學校、大型集會場所",
    "placeType": "高中職",
    "aedPlacementLocation": "大安高工健康中心",
    "aedLocationDescription": "行政大樓一樓健康中心",
    "source": "臺北市AED自動體外心臟去顫器設置地點"
  },
  {
    "id": "aed-108",
    "layer": "aed_location",
    "placeName": "臺北市文山區公所",
    "address": "木柵路3段220號8.9樓",
    "districtCode": "63000080",
    "district": "文山區",
    "latitude": 24.98964,
    "longitude": 121.570083,
    "coordinateStatus": "valid",
    "placeCategory": "其他",
    "placeType": "其他場所",
    "aedPlacementLocation": "行政中心8樓區公所大門口入口",
    "aedLocationDescription": "區公所大門入口",
    "source": "臺北市AED自動體外心臟去顫器設置地點"
  },
  {
    "id": "aed-109",
    "layer": "aed_location",
    "placeName": "臺北市文山運動中心",
    "address": "興隆路三段222號",
    "districtCode": "63000080",
    "district": "文山區",
    "latitude": 24.997017,
    "longitude": 121.559673,
    "coordinateStatus": "valid",
    "placeCategory": "學校、大型集會場所",
    "placeType": "健身中心",
    "aedPlacementLocation": "三樓游泳池",
    "aedLocationDescription": "三樓游泳池管理室、垃圾筒旁",
    "source": "臺北市AED自動體外心臟去顫器設置地點"
  },
  {
    "id": "aed-110",
    "layer": "aed_location",
    "placeName": "臺北市立中崙高級中學",
    "address": "八德路四段101號",
    "districtCode": "63000010",
    "district": "松山區",
    "latitude": 25.049505,
    "longitude": 121.562213,
    "coordinateStatus": "valid",
    "placeCategory": "學校、大型集會場所",
    "placeType": "高中職",
    "aedPlacementLocation": "1樓川堂",
    "aedLocationDescription": "1樓川堂，雙電梯右前方，近室內籃球場。",
    "source": "臺北市AED自動體外心臟去顫器設置地點"
  },
  {
    "id": "aed-111",
    "layer": "aed_location",
    "placeName": "台北美國學校",
    "address": "11152 中山北路六段 800號",
    "districtCode": "63000110",
    "district": "士林區",
    "latitude": 25.1164004,
    "longitude": 121.5301123,
    "coordinateStatus": "valid",
    "placeCategory": "學校、大型集會場所",
    "placeType": "高中職",
    "aedPlacementLocation": "MS Outside Entrance",
    "aedLocationDescription": "1st ?oor entrance to B building near MS o?ces in the outside foyer",
    "source": "臺北市AED自動體外心臟去顫器設置地點"
  },
  {
    "id": "aed-112",
    "layer": "aed_location",
    "placeName": "台北美國學校",
    "address": "11152 中山北路六段 800號",
    "districtCode": "63000110",
    "district": "士林區",
    "latitude": 25.1164004,
    "longitude": 121.5301123,
    "coordinateStatus": "valid",
    "placeCategory": "學校、大型集會場所",
    "placeType": "高中職",
    "aedPlacementLocation": "LS Gym Back Foyer",
    "aedLocationDescription": "1st ?oor, LS Gym equipment room area",
    "source": "臺北市AED自動體外心臟去顫器設置地點"
  },
  {
    "id": "aed-113",
    "layer": "aed_location",
    "placeName": "台北美國學校",
    "address": "11152 中山北路六段 800號",
    "districtCode": "63000110",
    "district": "士林區",
    "latitude": 25.1164004,
    "longitude": 121.5301123,
    "coordinateStatus": "valid",
    "placeCategory": "學校、大型集會場所",
    "placeType": "高中職",
    "aedPlacementLocation": "Tech Cube",
    "aedLocationDescription": "4th ?oor sky bridge entrance to tech cube",
    "source": "臺北市AED自動體外心臟去顫器設置地點"
  },
  {
    "id": "aed-114",
    "layer": "aed_location",
    "placeName": "台北美國學校",
    "address": "11152 中山北路六段 800號",
    "districtCode": "63000110",
    "district": "士林區",
    "latitude": 25.1164004,
    "longitude": 121.5301123,
    "coordinateStatus": "valid",
    "placeCategory": "學校、大型集會場所",
    "placeType": "高中職",
    "aedPlacementLocation": "Mobile Nurse’s AED",
    "aedLocationDescription": "1st ?oor, nurse health o?ce; in the rest area’s wooden cabinets",
    "source": "臺北市AED自動體外心臟去顫器設置地點"
  },
  {
    "id": "aed-115",
    "layer": "aed_location",
    "placeName": "台北美國學校",
    "address": "11152 中山北路六段 800號",
    "districtCode": "63000110",
    "district": "士林區",
    "latitude": 25.1164004,
    "longitude": 121.5301123,
    "coordinateStatus": "valid",
    "placeCategory": "學校、大型集會場所",
    "placeType": "高中職",
    "aedPlacementLocation": "US 4th Floor",
    "aedLocationDescription": "4th ?oor on wall to the right of auditorium in H building",
    "source": "臺北市AED自動體外心臟去顫器設置地點"
  },
  {
    "id": "aed-116",
    "layer": "aed_location",
    "placeName": "台北美國學校",
    "address": "11152 中山北路六段 800號",
    "districtCode": "63000110",
    "district": "士林區",
    "latitude": 25.1164004,
    "longitude": 121.5301123,
    "coordinateStatus": "valid",
    "placeCategory": "學校、大型集會場所",
    "placeType": "高中職",
    "aedPlacementLocation": "Pool Deck",
    "aedLocationDescription": "2nd ?oor on wall closest to the stairwell leading to the ?eld",
    "source": "臺北市AED自動體外心臟去顫器設置地點"
  },
  {
    "id": "aed-117",
    "layer": "aed_location",
    "placeName": "教育部體育署",
    "address": "朱崙街20號",
    "districtCode": "63000040",
    "district": "中山區",
    "latitude": 25.049685,
    "longitude": 121.539728,
    "coordinateStatus": "valid",
    "placeCategory": "其他",
    "placeType": "其他場所",
    "aedPlacementLocation": "教育部體育署",
    "aedLocationDescription": "教育部體育署體育聯合辦公大樓1樓大廳櫃台旁",
    "source": "臺北市AED自動體外心臟去顫器設置地點"
  },
  {
    "id": "aed-118",
    "layer": "aed_location",
    "placeName": "臺北市立復興高級中學",
    "address": "復興四路70號",
    "districtCode": "63000120",
    "district": "北投區",
    "latitude": 25.143591,
    "longitude": 121.5018,
    "coordinateStatus": "valid",
    "placeCategory": "學校、大型集會場所",
    "placeType": "高中職",
    "aedPlacementLocation": "校門入口右側勤學樓1樓",
    "aedLocationDescription": "勤學樓1樓衛生組前",
    "source": "臺北市AED自動體外心臟去顫器設置地點"
  },
  {
    "id": "aed-119",
    "layer": "aed_location",
    "placeName": "國立臺灣師範大學附屬高中",
    "address": "信義路三段143號(師大附中)",
    "districtCode": "63000030",
    "district": "大安區",
    "latitude": 25.033674,
    "longitude": 121.540411,
    "coordinateStatus": "valid",
    "placeCategory": "學校、大型集會場所",
    "placeType": "高中職",
    "aedPlacementLocation": "中正樓穿堂",
    "aedLocationDescription": "中正樓穿堂",
    "source": "臺北市AED自動體外心臟去顫器設置地點"
  },
  {
    "id": "aed-120",
    "layer": "aed_location",
    "placeName": "臺北市萬華運動中心",
    "address": "西寧南路6-1號",
    "districtCode": "63000070",
    "district": "萬華區",
    "latitude": 25.047075,
    "longitude": 121.50674,
    "coordinateStatus": "valid",
    "placeCategory": "學校、大型集會場所",
    "placeType": "健身中心",
    "aedPlacementLocation": "B1游泳池",
    "aedLocationDescription": "女蒸氣室前方柱子",
    "source": "臺北市AED自動體外心臟去顫器設置地點"
  },
  {
    "id": "aed-121",
    "layer": "aed_location",
    "placeName": "臺北市信義區公所",
    "address": "福德街86號",
    "districtCode": "63000020",
    "district": "信義區",
    "latitude": 25.03772618,
    "longitude": 121.5819729,
    "coordinateStatus": "valid",
    "placeCategory": "其他",
    "placeType": "其他場所",
    "aedPlacementLocation": "1樓大廳",
    "aedLocationDescription": "1樓大廳服務櫃台旁",
    "source": "臺北市AED自動體外心臟去顫器設置地點"
  },
  {
    "id": "aed-122",
    "layer": "aed_location",
    "placeName": "臺北體育園區田徑場",
    "address": "敦化北路3號",
    "districtCode": "63000010",
    "district": "松山區",
    "latitude": 25.049461,
    "longitude": 121.551034,
    "coordinateStatus": "valid",
    "placeCategory": "大型休閒場所",
    "placeType": "運動場館(如小巨蛋)",
    "aedPlacementLocation": "臺北田徑場行政廊道",
    "aedLocationDescription": "臺北田徑場行政廊道口，警衛櫃檯旁",
    "source": "臺北市AED自動體外心臟去顫器設置地點"
  },
  {
    "id": "aed-123",
    "layer": "aed_location",
    "placeName": "臺北市立大安國民中學",
    "address": "大安路二段63號",
    "districtCode": "63000030",
    "district": "大安區",
    "latitude": 25.03076435,
    "longitude": 121.5461936,
    "coordinateStatus": "valid",
    "placeCategory": "學校、大型集會場所",
    "placeType": "國中",
    "aedPlacementLocation": "輔導室前樓梯旁",
    "aedLocationDescription": "從校門口經圖書館後右轉，輔導室前樓梯旁",
    "source": "臺北市AED自動體外心臟去顫器設置地點"
  },
  {
    "id": "aed-124",
    "layer": "aed_location",
    "placeName": "臺北市立聯合醫院松德院區",
    "address": "松德路309號",
    "districtCode": "63000020",
    "district": "信義區",
    "latitude": 25.030508,
    "longitude": 121.574895,
    "coordinateStatus": "valid",
    "placeCategory": "其他",
    "placeType": "其他場所",
    "aedPlacementLocation": "松德院區第三院區一樓",
    "aedLocationDescription": "位於松德院區第三院區一樓，又稱8A、又一村、蘭亭書院；AED設備24小時可取用，二樓辦公室人員為周一到週五上班(08:00-17:00)。",
    "source": "臺北市AED自動體外心臟去顫器設置地點"
  },
  {
    "id": "aed-125",
    "layer": "aed_location",
    "placeName": "臺北市立明湖國民中學",
    "address": "康寧路3段60號",
    "districtCode": "63000100",
    "district": "內湖區",
    "latitude": 25.07062,
    "longitude": 121.610643,
    "coordinateStatus": "valid",
    "placeCategory": "其他",
    "placeType": "其他場所",
    "aedPlacementLocation": "健康中心外",
    "aedLocationDescription": "位於校園中心點，在校門口與操場中間點。",
    "source": "臺北市AED自動體外心臟去顫器設置地點"
  },
  {
    "id": "aed-126",
    "layer": "aed_location",
    "placeName": "臺北體育館羽球場",
    "address": "南京東路4段10號7樓",
    "districtCode": "63000010",
    "district": "松山區",
    "latitude": 25.051292,
    "longitude": 121.552094,
    "coordinateStatus": "valid",
    "placeCategory": "大型休閒場所",
    "placeType": "運動場館(如小巨蛋)",
    "aedPlacementLocation": "7樓羽球場",
    "aedLocationDescription": "7樓羽球場東側走道",
    "source": "臺北市AED自動體外心臟去顫器設置地點"
  },
  {
    "id": "aed-127",
    "layer": "aed_location",
    "placeName": "臺北市北投運動中心",
    "address": "石牌路1段39巷100號",
    "districtCode": "63000120",
    "district": "北投區",
    "latitude": 25.116473,
    "longitude": 121.509762,
    "coordinateStatus": "valid",
    "placeCategory": "學校、大型集會場所",
    "placeType": "健身中心",
    "aedPlacementLocation": "一樓中控室前方",
    "aedLocationDescription": "一樓中控室前方，靠近販賣部",
    "source": "臺北市AED自動體外心臟去顫器設置地點"
  },
  {
    "id": "aed-128",
    "layer": "aed_location",
    "placeName": "臺北市北投區公所",
    "address": "立功街9號11樓-1",
    "districtCode": "63000120",
    "district": "北投區",
    "latitude": 25.12453876,
    "longitude": 121.4688592,
    "coordinateStatus": "valid",
    "placeCategory": "其他",
    "placeType": "其他場所",
    "aedPlacementLocation": "北投區公所11樓-1",
    "aedLocationDescription": "立功街9號11樓-1",
    "source": "臺北市AED自動體外心臟去顫器設置地點"
  },
  {
    "id": "aed-129",
    "layer": "aed_location",
    "placeName": "臺北市政府體育局體育行政樓",
    "address": "南京東路4段10號1樓",
    "districtCode": "63000010",
    "district": "松山區",
    "latitude": 25.051292,
    "longitude": 121.552094,
    "coordinateStatus": "valid",
    "placeCategory": "其他",
    "placeType": "其他場所",
    "aedPlacementLocation": "1樓電梯旁",
    "aedLocationDescription": "1樓電梯旁",
    "source": "臺北市AED自動體外心臟去顫器設置地點"
  },
  {
    "id": "aed-130",
    "layer": "aed_location",
    "placeName": "臺北巿松山運動中心",
    "address": "敦化北路1號",
    "districtCode": "63000010",
    "district": "松山區",
    "latitude": 25.048607,
    "longitude": 121.550231,
    "coordinateStatus": "valid",
    "placeCategory": "學校、大型集會場所",
    "placeType": "健身中心",
    "aedPlacementLocation": "一樓泳池",
    "aedLocationDescription": "一樓50公尺泳池池畔",
    "source": "臺北市AED自動體外心臟去顫器設置地點"
  },
  {
    "id": "aed-131",
    "layer": "aed_location",
    "placeName": "臺北市立松山高級工農職業學校",
    "address": "忠孝東路5段236巷15號",
    "districtCode": "63000020",
    "district": "信義區",
    "latitude": 25.039645,
    "longitude": 121.57203,
    "coordinateStatus": "valid",
    "placeCategory": "學校、大型集會場所",
    "placeType": "高中職",
    "aedPlacementLocation": "松山工農警衛室",
    "aedLocationDescription": "校門口警衛室",
    "source": "臺北市AED自動體外心臟去顫器設置地點"
  },
  {
    "id": "aed-132",
    "layer": "aed_location",
    "placeName": "三軍總醫院",
    "address": "成功路二段325號",
    "districtCode": "63000100",
    "district": "內湖區",
    "latitude": 25.071562,
    "longitude": 121.593965,
    "coordinateStatus": "valid",
    "placeCategory": "其他",
    "placeType": "其他場所",
    "aedPlacementLocation": "女醫護宿舍",
    "aedLocationDescription": "女醫護宿舍一樓大門左側",
    "source": "臺北市AED自動體外心臟去顫器設置地點"
  },
  {
    "id": "aed-133",
    "layer": "aed_location",
    "placeName": "臺北市立聯合醫院陽明院區",
    "address": "雨聲街105號",
    "districtCode": "63000110",
    "district": "士林區",
    "latitude": 25.104846,
    "longitude": 121.531212,
    "coordinateStatus": "valid",
    "placeCategory": "其他",
    "placeType": "其他場所",
    "aedPlacementLocation": "健檢中心入口左側櫃檯旁",
    "aedLocationDescription": "陽明院區後棟大樓--宿舍入口右側(健檢中心)",
    "source": "臺北市AED自動體外心臟去顫器設置地點"
  },
  {
    "id": "aed-134",
    "layer": "aed_location",
    "placeName": "臺北市花卉批發市場",
    "address": "新湖三路28號",
    "districtCode": "63000100",
    "district": "內湖區",
    "latitude": 25.062877,
    "longitude": 121.574525,
    "coordinateStatus": "valid",
    "placeCategory": "其他",
    "placeType": "其他場所",
    "aedPlacementLocation": "A館管理室入口旁",
    "aedLocationDescription": "A館民善街.新湖三路側行人入口處管理室旁",
    "source": "臺北市AED自動體外心臟去顫器設置地點"
  },
  {
    "id": "aed-135",
    "layer": "aed_location",
    "placeName": "臺北巿立介壽國民中學",
    "address": "延壽街401號",
    "districtCode": "63000010",
    "district": "松山區",
    "latitude": 25.056421,
    "longitude": 121.55628,
    "coordinateStatus": "valid",
    "placeCategory": "學校、大型集會場所",
    "placeType": "國中",
    "aedPlacementLocation": "校門口穿堂活動教室(二)藍廳門口前",
    "aedLocationDescription": "校門口穿堂活動教室(二)藍廳門口前",
    "source": "臺北市AED自動體外心臟去顫器設置地點"
  },
  {
    "id": "aed-136",
    "layer": "aed_location",
    "placeName": "臺北市中山區公所",
    "address": "松江路367號",
    "districtCode": "63000040",
    "district": "中山區",
    "latitude": 25.064408,
    "longitude": 121.533456,
    "coordinateStatus": "valid",
    "placeCategory": "其他",
    "placeType": "其他場所",
    "aedPlacementLocation": "臺北市中山區行政中心1樓大廳",
    "aedLocationDescription": "臺北市中山區行政中心1樓大廳",
    "source": "臺北市AED自動體外心臟去顫器設置地點"
  },
  {
    "id": "aed-137",
    "layer": "aed_location",
    "placeName": "臺北市立第一女子高級中學",
    "address": "重慶南路一段165號",
    "districtCode": "63000050",
    "district": "中正區",
    "latitude": 25.038561,
    "longitude": 121.513103,
    "coordinateStatus": "valid",
    "placeCategory": "學校、大型集會場所",
    "placeType": "高中職",
    "aedPlacementLocation": "大門口內的會客室",
    "aedLocationDescription": "會客室的玻璃屋內",
    "source": "臺北市AED自動體外心臟去顫器設置地點"
  },
  {
    "id": "aed-138",
    "layer": "aed_location",
    "placeName": "臺北市公有環南市場",
    "address": "環河南路二段245號",
    "districtCode": "63000070",
    "district": "萬華區",
    "latitude": 25.029942,
    "longitude": 121.489814,
    "coordinateStatus": "valid",
    "placeCategory": "其他",
    "placeType": "其他場所",
    "aedPlacementLocation": "環南市場清潔辦公室前",
    "aedLocationDescription": "環南市場清潔辦公室前",
    "source": "臺北市AED自動體外心臟去顫器設置地點"
  },
  {
    "id": "aed-139",
    "layer": "aed_location",
    "placeName": "臺北市士林區公所",
    "address": "中正路439號1樓",
    "districtCode": "63000110",
    "district": "士林區",
    "latitude": 25.092762,
    "longitude": 121.519559,
    "coordinateStatus": "valid",
    "placeCategory": "其他",
    "placeType": "其他場所",
    "aedPlacementLocation": "9樓洽公民眾區",
    "aedLocationDescription": "9樓洽公民眾區",
    "source": "臺北市AED自動體外心臟去顫器設置地點"
  },
  {
    "id": "aed-140",
    "layer": "aed_location",
    "placeName": "臺北市公有建國市場",
    "address": "伊通街94號",
    "districtCode": "63000040",
    "district": "中山區",
    "latitude": 25.053519,
    "longitude": 121.534265,
    "coordinateStatus": "valid",
    "placeCategory": "其他",
    "placeType": "其他場所",
    "aedPlacementLocation": "公廁外",
    "aedLocationDescription": "公廁外",
    "source": "臺北市AED自動體外心臟去顫器設置地點"
  },
  {
    "id": "aed-141",
    "layer": "aed_location",
    "placeName": "財團法人臺北市私立愛愛院",
    "address": "大理街175巷27號",
    "districtCode": "63000070",
    "district": "萬華區",
    "latitude": 25.034614,
    "longitude": 121.495453,
    "coordinateStatus": "valid",
    "placeCategory": "其他",
    "placeType": "其他場所",
    "aedPlacementLocation": "愛愛院入口1樓接待大廳",
    "aedLocationDescription": "1樓接待大廳",
    "source": "臺北市AED自動體外心臟去顫器設置地點"
  },
  {
    "id": "aed-142",
    "layer": "aed_location",
    "placeName": "國立臺灣戲曲學院-內湖校區",
    "address": "內湖路2段177號",
    "districtCode": "63000100",
    "district": "內湖區",
    "latitude": 25.08146821,
    "longitude": 121.5865892,
    "coordinateStatus": "valid",
    "placeCategory": "學校、大型集會場所",
    "placeType": "大專院校",
    "aedPlacementLocation": "警衛室",
    "aedLocationDescription": "警衛室會客室",
    "source": "臺北市AED自動體外心臟去顫器設置地點"
  },
  {
    "id": "aed-143",
    "layer": "aed_location",
    "placeName": "三軍總醫院",
    "address": "成功路二段325號",
    "districtCode": "63000100",
    "district": "內湖區",
    "latitude": 25.071562,
    "longitude": 121.593965,
    "coordinateStatus": "valid",
    "placeCategory": "其他",
    "placeType": "其他場所",
    "aedPlacementLocation": "西迴二樓入口",
    "aedLocationDescription": "二樓大廳門口邊",
    "source": "臺北市AED自動體外心臟去顫器設置地點"
  },
  {
    "id": "aed-144",
    "layer": "aed_location",
    "placeName": "臺北市立西松高級中學",
    "address": "健康路325巷7號",
    "districtCode": "63000010",
    "district": "松山區",
    "latitude": 25.055551,
    "longitude": 121.567082,
    "coordinateStatus": "valid",
    "placeCategory": "學校、大型集會場所",
    "placeType": "高中職",
    "aedPlacementLocation": "活動中心一樓",
    "aedLocationDescription": "西松高中側門 進入後  右側即是活動中心 活動中心一樓 即是放置處",
    "source": "臺北市AED自動體外心臟去顫器設置地點"
  },
  {
    "id": "aed-145",
    "layer": "aed_location",
    "placeName": "臺北市萬華區戶政事務所",
    "address": "和平西路三段120號4樓",
    "districtCode": "63000070",
    "district": "萬華區",
    "latitude": 25.03467,
    "longitude": 121.499877,
    "coordinateStatus": "valid",
    "placeCategory": "其他",
    "placeType": "其他場所",
    "aedPlacementLocation": "4樓服務台旁",
    "aedLocationDescription": "服務台旁",
    "source": "臺北市AED自動體外心臟去顫器設置地點"
  },
  {
    "id": "aed-146",
    "layer": "aed_location",
    "placeName": "臺北市立大同高級中學",
    "address": "長春路167號",
    "districtCode": "63000040",
    "district": "中山區",
    "latitude": 25.055031,
    "longitude": 121.535198,
    "coordinateStatus": "valid",
    "placeCategory": "學校、大型集會場所",
    "placeType": "高中職",
    "aedPlacementLocation": "活動中心３樓",
    "aedLocationDescription": "活動中心為大型集會或體育課活動場所，故置放於此以便緊急救護。",
    "source": "臺北市AED自動體外心臟去顫器設置地點"
  },
  {
    "id": "aed-147",
    "layer": "aed_location",
    "placeName": "三軍總醫院",
    "address": "成功路二段325號",
    "districtCode": "63000100",
    "district": "內湖區",
    "latitude": 25.071562,
    "longitude": 121.593965,
    "coordinateStatus": "valid",
    "placeCategory": "其他",
    "placeType": "其他場所",
    "aedPlacementLocation": "牙科門診入口",
    "aedLocationDescription": "二樓牙科門診入口旁",
    "source": "臺北市AED自動體外心臟去顫器設置地點"
  },
  {
    "id": "aed-148",
    "layer": "aed_location",
    "placeName": "臺北市立士林高級商業職業學校",
    "address": "士商路150號",
    "districtCode": "63000110",
    "district": "士林區",
    "latitude": 25.095825,
    "longitude": 121.515731,
    "coordinateStatus": "valid",
    "placeCategory": "學校、大型集會場所",
    "placeType": "高中職",
    "aedPlacementLocation": "體育組",
    "aedLocationDescription": "行政大樓1樓右轉至體育組內\n進門右手邊\n圖1為體育組走廊",
    "source": "臺北市AED自動體外心臟去顫器設置地點"
  },
  {
    "id": "aed-149",
    "layer": "aed_location",
    "placeName": "臺北市立西松高級中學",
    "address": "健康路325巷7號",
    "districtCode": "63000010",
    "district": "松山區",
    "latitude": 25.055551,
    "longitude": 121.567082,
    "coordinateStatus": "valid",
    "placeCategory": "學校、大型集會場所",
    "placeType": "高中職",
    "aedPlacementLocation": "一樓穿堂",
    "aedLocationDescription": "學校大門進入後走上階梯就是穿堂  放置在右側",
    "source": "臺北市AED自動體外心臟去顫器設置地點"
  },
  {
    "id": "aed-150",
    "layer": "aed_location",
    "placeName": "三軍總醫院",
    "address": "成功路二段325號",
    "districtCode": "63000100",
    "district": "內湖區",
    "latitude": 25.071562,
    "longitude": 121.593965,
    "coordinateStatus": "valid",
    "placeCategory": "其他",
    "placeType": "其他場所",
    "aedPlacementLocation": "一樓門診大廳入口",
    "aedLocationDescription": "一樓門診大廳公告欄柱子旁",
    "source": "臺北市AED自動體外心臟去顫器設置地點"
  },
  {
    "id": "aed-151",
    "layer": "aed_location",
    "placeName": "臺北市立明倫高級中學",
    "address": "承德路3段336號",
    "districtCode": "63000060",
    "district": "大同區",
    "latitude": 25.075448,
    "longitude": 121.519905,
    "coordinateStatus": "valid",
    "placeCategory": "學校、大型集會場所",
    "placeType": "高中職",
    "aedPlacementLocation": "1樓健康中心門口旁",
    "aedLocationDescription": "進學校大門直走靠右邊，\nAED位於1樓健康中心門口旁。",
    "source": "臺北市AED自動體外心臟去顫器設置地點"
  },
  {
    "id": "aed-152",
    "layer": "aed_location",
    "placeName": "華西街臨時攤販集中場",
    "address": "華西街，位於廣州街至西園路一段72巷口",
    "districtCode": "63000070",
    "district": "萬華區",
    "latitude": 25.037647,
    "longitude": 121.498361,
    "coordinateStatus": "valid",
    "placeCategory": "其他",
    "placeType": "其他場所",
    "aedPlacementLocation": "華西街商圈區協會辦公室(台北市華西街28之1號2樓)",
    "aedLocationDescription": "華西街商圈區協會辦公室(台北市華西街28之1號2樓)",
    "source": "臺北市AED自動體外心臟去顫器設置地點"
  },
  {
    "id": "aed-153",
    "layer": "aed_location",
    "placeName": "臺北市立華江高級中學",
    "address": "西藏路213號(健康中心)",
    "districtCode": "63000070",
    "district": "萬華區",
    "latitude": 25.028594,
    "longitude": 121.496058,
    "coordinateStatus": "valid",
    "placeCategory": "學校、大型集會場所",
    "placeType": "高中職",
    "aedPlacementLocation": "健康中心",
    "aedLocationDescription": "健康中心",
    "source": "臺北市AED自動體外心臟去顫器設置地點"
  },
  {
    "id": "aed-154",
    "layer": "aed_location",
    "placeName": "臺北市立建國高級中學",
    "address": "南海路56號",
    "districtCode": "63000050",
    "district": "中正區",
    "latitude": 25.0312,
    "longitude": 121.512152,
    "coordinateStatus": "valid",
    "placeCategory": "學校、大型集會場所",
    "placeType": "高中職",
    "aedPlacementLocation": "建國中學校門",
    "aedLocationDescription": "建國中學傳達室",
    "source": "臺北市AED自動體外心臟去顫器設置地點"
  },
  {
    "id": "aed-155",
    "layer": "aed_location",
    "placeName": "臺北市立西湖國民中學",
    "address": "環山路一段27號",
    "districtCode": "63000100",
    "district": "內湖區",
    "latitude": 25.085027,
    "longitude": 121.565695,
    "coordinateStatus": "valid",
    "placeCategory": "學校、大型集會場所",
    "placeType": "國中",
    "aedPlacementLocation": "大門口穿堂",
    "aedLocationDescription": "面對穿堂左前方",
    "source": "臺北市AED自動體外心臟去顫器設置地點"
  },
  {
    "id": "aed-156",
    "layer": "aed_location",
    "placeName": "臺北市立聯合醫院附設萬華門診部",
    "address": "東園街152號",
    "districtCode": "63000070",
    "district": "萬華區",
    "latitude": 25.023174,
    "longitude": 121.497642,
    "coordinateStatus": "valid",
    "placeCategory": "其他",
    "placeType": "其他場所",
    "aedPlacementLocation": "大門入口右側",
    "aedLocationDescription": "東園街152號",
    "source": "臺北市AED自動體外心臟去顫器設置地點"
  },
  {
    "id": "aed-157",
    "layer": "aed_location",
    "placeName": "臺北市立大同高級中學",
    "address": "長春路167號",
    "districtCode": "63000040",
    "district": "中山區",
    "latitude": 25.055031,
    "longitude": 121.535198,
    "coordinateStatus": "valid",
    "placeCategory": "學校、大型集會場所",
    "placeType": "高中職",
    "aedPlacementLocation": "健康中心前走廊",
    "aedLocationDescription": "緊急事故發生時皆會通知健康中心及教官室，故置於健康中心前走廊以便取得。",
    "source": "臺北市AED自動體外心臟去顫器設置地點"
  },
  {
    "id": "aed-158",
    "layer": "aed_location",
    "placeName": "三軍總醫院",
    "address": "成功路二段325號",
    "districtCode": "63000100",
    "district": "內湖區",
    "latitude": 25.071562,
    "longitude": 121.593965,
    "coordinateStatus": "valid",
    "placeCategory": "其他",
    "placeType": "其他場所",
    "aedPlacementLocation": "能源事務室2樓",
    "aedLocationDescription": "能源事務室2樓會議室門口",
    "source": "臺北市AED自動體外心臟去顫器設置地點"
  },
  {
    "id": "aed-159",
    "layer": "aed_location",
    "placeName": "臺北市中山區戶政事務所",
    "address": "松江路367號2樓",
    "districtCode": "63000040",
    "district": "中山區",
    "latitude": 25.064408,
    "longitude": 121.533456,
    "coordinateStatus": "valid",
    "placeCategory": "其他",
    "placeType": "其他場所",
    "aedPlacementLocation": "電機室門口",
    "aedLocationDescription": "電機室門口(中山戶政事務所入口處即可看見)",
    "source": "臺北市AED自動體外心臟去顫器設置地點"
  },
  {
    "id": "aed-160",
    "layer": "aed_location",
    "placeName": "國立臺灣戲曲學院-木柵校區",
    "address": "木柵路三段66巷8之1號",
    "districtCode": "63000080",
    "district": "文山區",
    "latitude": 24.986627,
    "longitude": 121.566231,
    "coordinateStatus": "valid",
    "placeCategory": "學校、大型集會場所",
    "placeType": "大專院校",
    "aedPlacementLocation": "木柵校區警衛室",
    "aedLocationDescription": "警衛室內",
    "source": "臺北市AED自動體外心臟去顫器設置地點"
  },
  {
    "id": "aed-161",
    "layer": "aed_location",
    "placeName": "三軍總醫院",
    "address": "成功路二段325號",
    "districtCode": "63000100",
    "district": "內湖區",
    "latitude": 25.071562,
    "longitude": 121.593965,
    "coordinateStatus": "valid",
    "placeCategory": "其他",
    "placeType": "其他場所",
    "aedPlacementLocation": "正子中心1樓",
    "aedLocationDescription": "正子中心內",
    "source": "臺北市AED自動體外心臟去顫器設置地點"
  },
  {
    "id": "aed-162",
    "layer": "aed_location",
    "placeName": "臺北市立建國高級中學",
    "address": "南海路56號",
    "districtCode": "63000050",
    "district": "中正區",
    "latitude": 25.0312,
    "longitude": 121.512152,
    "coordinateStatus": "valid",
    "placeCategory": "學校、大型集會場所",
    "placeType": "高中職",
    "aedPlacementLocation": "體育組",
    "aedLocationDescription": "活動中心旁邊\n操場及籃球場旁\n體育教師辦公室",
    "source": "臺北市AED自動體外心臟去顫器設置地點"
  },
  {
    "id": "aed-163",
    "layer": "aed_location",
    "placeName": "臺北市立松山高級商業家事職業學校",
    "address": "松山路655號",
    "districtCode": "63000020",
    "district": "信義區",
    "latitude": 25.035129,
    "longitude": 121.58005,
    "coordinateStatus": "valid",
    "placeCategory": "學校、大型集會場所",
    "placeType": "高中職",
    "aedPlacementLocation": "健康中心",
    "aedLocationDescription": "健康中心室內",
    "source": "臺北市AED自動體外心臟去顫器設置地點"
  },
  {
    "id": "aed-164",
    "layer": "aed_location",
    "placeName": "三軍總醫院",
    "address": "成功路二段325號",
    "districtCode": "63000100",
    "district": "內湖區",
    "latitude": 25.071562,
    "longitude": 121.593965,
    "coordinateStatus": "valid",
    "placeCategory": "其他",
    "placeType": "其他場所",
    "aedPlacementLocation": "B1演講廳大廳",
    "aedLocationDescription": "演講廳大廳電視下方",
    "source": "臺北市AED自動體外心臟去顫器設置地點"
  },
  {
    "id": "aed-165",
    "layer": "aed_location",
    "placeName": "臺北市萬華區公所",
    "address": "和平西路3段120號11樓",
    "districtCode": "63000070",
    "district": "萬華區",
    "latitude": 25.035002,
    "longitude": 121.499888,
    "coordinateStatus": "valid",
    "placeCategory": "其他",
    "placeType": "其他場所",
    "aedPlacementLocation": "11樓服務台",
    "aedLocationDescription": "11樓服務台後側左方",
    "source": "臺北市AED自動體外心臟去顫器設置地點"
  },
  {
    "id": "aed-166",
    "layer": "aed_location",
    "placeName": "臺北市立懷生國民中學",
    "address": "忠孝東路3段248巷30號",
    "districtCode": "63000030",
    "district": "大安區",
    "latitude": 25.04015,
    "longitude": 121.540847,
    "coordinateStatus": "valid",
    "placeCategory": "學校、大型集會場所",
    "placeType": "國中",
    "aedPlacementLocation": "2F學務處內",
    "aedLocationDescription": "東南樓梯上去左手邊學務處門口",
    "source": "臺北市AED自動體外心臟去顫器設置地點"
  },
  {
    "id": "aed-167",
    "layer": "aed_location",
    "placeName": "新光信義傑仕堡",
    "address": "信義路5段126-128號",
    "districtCode": "63000020",
    "district": "信義區",
    "latitude": 25.032515,
    "longitude": 121.569156,
    "coordinateStatus": "valid",
    "placeCategory": "其他",
    "placeType": "其他場所",
    "aedPlacementLocation": "正門進入1樓大廳",
    "aedLocationDescription": "1樓大廳沙發區旁",
    "source": "臺北市AED自動體外心臟去顫器設置地點"
  },
  {
    "id": "aed-168",
    "layer": "aed_location",
    "placeName": "內政部國家公園署陽明山國家公園管理處遊客中心",
    "address": "竹子湖路1-20號",
    "districtCode": "63000120",
    "district": "北投區",
    "latitude": 25.155336,
    "longitude": 121.546662,
    "coordinateStatus": "valid",
    "placeCategory": "觀光旅遊地區",
    "placeType": "國家公園",
    "aedPlacementLocation": "遊客中心服務台旁",
    "aedLocationDescription": "遊客中心大門進入後的右邊服務台旁",
    "source": "臺北市AED自動體外心臟去顫器設置地點"
  },
  {
    "id": "aed-169",
    "layer": "aed_location",
    "placeName": "內政部國家公園署陽明山國家公園管理處小油坑遊客服務站",
    "address": "竹子湖路69號",
    "districtCode": "63000120",
    "district": "北投區",
    "latitude": 25.176434,
    "longitude": 121.546896,
    "coordinateStatus": "valid",
    "placeCategory": "觀光旅遊地區",
    "placeType": "國家公園",
    "aedPlacementLocation": "小油坑遊客服務站內",
    "aedLocationDescription": "設置地點於遊客服務站內,清楚易見",
    "source": "臺北市AED自動體外心臟去顫器設置地點"
  },
  {
    "id": "aed-170",
    "layer": "aed_location",
    "placeName": "內政部國家公園署陽明山國家公園管理處擎天崗遊客服務站",
    "address": "菁山路101巷246號(擎天崗遊客服務站)",
    "districtCode": "63000110",
    "district": "士林區",
    "latitude": 25.167212,
    "longitude": 121.574182,
    "coordinateStatus": "valid",
    "placeCategory": "觀光旅遊地區",
    "placeType": "國家公園",
    "aedPlacementLocation": "服務站大門入口處",
    "aedLocationDescription": "服務站門口側邊",
    "source": "臺北市AED自動體外心臟去顫器設置地點"
  },
  {
    "id": "aed-171",
    "layer": "aed_location",
    "placeName": "內政部國家公園署陽明山國家公園管理處冷水坑遊客服務站",
    "address": "菁山路101巷170號(冷水坑遊客服務站)",
    "districtCode": "63000110",
    "district": "士林區",
    "latitude": 25.165613,
    "longitude": 121.56391,
    "coordinateStatus": "valid",
    "placeCategory": "觀光旅遊地區",
    "placeType": "國家公園",
    "aedPlacementLocation": "一樓展場內",
    "aedLocationDescription": "冷水坑遊客服務站一樓展場內",
    "source": "臺北市AED自動體外心臟去顫器設置地點"
  },
  {
    "id": "aed-172",
    "layer": "aed_location",
    "placeName": "交通部民用航空局臺北國際航空站(松山機場)",
    "address": "敦化北路340-9號",
    "districtCode": "63000010",
    "district": "松山區",
    "latitude": 25.06369,
    "longitude": 121.552742,
    "coordinateStatus": "valid",
    "placeCategory": "交通要衝",
    "placeType": "機場",
    "aedPlacementLocation": "國內線報到大廳",
    "aedLocationDescription": "服務檯內",
    "source": "臺北市AED自動體外心臟去顫器設置地點"
  },
  {
    "id": "aed-173",
    "layer": "aed_location",
    "placeName": "交通部民用航空局臺北國際航空站(松山機場)",
    "address": "敦化北路340-9號",
    "districtCode": "63000010",
    "district": "松山區",
    "latitude": 25.06369,
    "longitude": 121.552742,
    "coordinateStatus": "valid",
    "placeCategory": "交通要衝",
    "placeType": "機場",
    "aedPlacementLocation": "國內線內候機室1樓",
    "aedLocationDescription": "12登機門前座椅區",
    "source": "臺北市AED自動體外心臟去顫器設置地點"
  },
  {
    "id": "aed-174",
    "layer": "aed_location",
    "placeName": "交通部民用航空局臺北國際航空站(松山機場)",
    "address": "敦化北路340-9號",
    "districtCode": "63000010",
    "district": "松山區",
    "latitude": 25.06369,
    "longitude": 121.552742,
    "coordinateStatus": "valid",
    "placeCategory": "交通要衝",
    "placeType": "機場",
    "aedPlacementLocation": "國際線3樓入境廊道:昇恒昌對面",
    "aedLocationDescription": "昇恒昌對面",
    "source": "臺北市AED自動體外心臟去顫器設置地點"
  },
  {
    "id": "aed-175",
    "layer": "aed_location",
    "placeName": "交通部民用航空局臺北國際航空站(松山機場)",
    "address": "敦化北路340-9號",
    "districtCode": "63000010",
    "district": "松山區",
    "latitude": 25.06369,
    "longitude": 121.552742,
    "coordinateStatus": "valid",
    "placeCategory": "交通要衝",
    "placeType": "機場",
    "aedPlacementLocation": "國內線內候機室2樓",
    "aedLocationDescription": "廁所前方",
    "source": "臺北市AED自動體外心臟去顫器設置地點"
  },
  {
    "id": "aed-176",
    "layer": "aed_location",
    "placeName": "交通部民用航空局臺北國際航空站(松山機場)",
    "address": "敦化北路340-9號",
    "districtCode": "63000010",
    "district": "松山區",
    "latitude": 25.06369,
    "longitude": 121.552742,
    "coordinateStatus": "valid",
    "placeCategory": "交通要衝",
    "placeType": "機場",
    "aedPlacementLocation": "國際線2樓內候機室:8R登機門東側",
    "aedLocationDescription": "8R登機門東側",
    "source": "臺北市AED自動體外心臟去顫器設置地點"
  },
  {
    "id": "aed-177",
    "layer": "aed_location",
    "placeName": "交通部臺灣鐵路管理局臺北運務段萬華站",
    "address": "康定路382號",
    "districtCode": "63000070",
    "district": "萬華區",
    "latitude": 25.033349,
    "longitude": 121.500442,
    "coordinateStatus": "valid",
    "placeCategory": "交通要衝",
    "placeType": "台鐵車站",
    "aedPlacementLocation": "一月台行車室",
    "aedLocationDescription": "月台在地下層.行車室在第8車位置.",
    "source": "臺北市AED自動體外心臟去顫器設置地點"
  },
  {
    "id": "aed-178",
    "layer": "aed_location",
    "placeName": "交通部臺灣鐵路管理局臺北運務段臺北站",
    "address": "北平西路3號1樓",
    "districtCode": "63000050",
    "district": "中正區",
    "latitude": 25.047924,
    "longitude": 121.517081,
    "coordinateStatus": "valid",
    "placeCategory": "交通要衝",
    "placeType": "台鐵車站",
    "aedPlacementLocation": "B2F月台層第三月台旅客響導室內",
    "aedLocationDescription": "B2F月台層第三月台旅客響導室內",
    "source": "臺北市AED自動體外心臟去顫器設置地點"
  },
  {
    "id": "aed-179",
    "layer": "aed_location",
    "placeName": "國營臺灣鐵路股份有限公司北區營運處臺北運務段松山站",
    "address": "永吉里松山路11號",
    "districtCode": "63000020",
    "district": "信義區",
    "latitude": 25.049263,
    "longitude": 121.578054,
    "coordinateStatus": "valid",
    "placeCategory": "交通要衝",
    "placeType": "台鐵車站",
    "aedPlacementLocation": "松山站旅客諮詢服務中心旁",
    "aedLocationDescription": "松山站旅客諮詢服務中心",
    "source": "臺北市AED自動體外心臟去顫器設置地點"
  },
  {
    "id": "aed-180",
    "layer": "aed_location",
    "placeName": "行政院人事行政總處公務人力發展學院福華國際文教會館",
    "address": "新生南路3段30號",
    "districtCode": "63000030",
    "district": "大安區",
    "latitude": 25.022831,
    "longitude": 121.534192,
    "coordinateStatus": "valid",
    "placeCategory": "旅宿場所",
    "placeType": "飯店",
    "aedPlacementLocation": "1樓大廳東側",
    "aedLocationDescription": "公務人力發展學院福華國際文教會館1F大廳東側",
    "source": "臺北市AED自動體外心臟去顫器設置地點"
  },
  {
    "id": "aed-181",
    "layer": "aed_location",
    "placeName": "誠品生活股份有限公司204號辦公室",
    "address": "松德路204號B1",
    "districtCode": "63000020",
    "district": "信義區",
    "latitude": 25.034413,
    "longitude": 121.574268,
    "coordinateStatus": "valid",
    "placeCategory": "其他",
    "placeType": "其他場所",
    "aedPlacementLocation": "大會議室1門口",
    "aedLocationDescription": "誠品生活204號辦公室為地下一樓，進入大門之後馬上左轉，再往左看即可看到AED設備，設備正好置於「大會議室1」門口",
    "source": "臺北市AED自動體外心臟去顫器設置地點"
  },
  {
    "id": "aed-182",
    "layer": "aed_location",
    "placeName": "誠品生活股份有限公司西門店",
    "address": "峨眉街52號B1F-3F",
    "districtCode": "63000070",
    "district": "萬華區",
    "latitude": 25.043798,
    "longitude": 121.505412,
    "coordinateStatus": "valid",
    "placeCategory": "大型購物場所",
    "placeType": "百貨業",
    "aedPlacementLocation": "誠品生活西門店B1F",
    "aedLocationDescription": "服務台旁",
    "source": "臺北市AED自動體外心臟去顫器設置地點"
  },
  {
    "id": "aed-183",
    "layer": "aed_location",
    "placeName": "誠品生活股份有限公司武昌店",
    "address": "武昌街2段77號",
    "districtCode": "63000070",
    "district": "萬華區",
    "latitude": 25.04517,
    "longitude": 121.505568,
    "coordinateStatus": "valid",
    "placeCategory": "大型購物場所",
    "placeType": "百貨業",
    "aedPlacementLocation": "誠品武昌店4F服務台旁",
    "aedLocationDescription": "誠品武昌店4F服務台旁",
    "source": "臺北市AED自動體外心臟去顫器設置地點"
  },
  {
    "id": "aed-184",
    "layer": "aed_location",
    "placeName": "誠品生活股份有限公司台大店",
    "address": "新生南路3段98號",
    "districtCode": "63000030",
    "district": "大安區",
    "latitude": 25.016996,
    "longitude": 121.533065,
    "coordinateStatus": "valid",
    "placeCategory": "大型購物場所",
    "placeType": "百貨業",
    "aedPlacementLocation": "誠品書店台大店1F緊急逃生出口處",
    "aedLocationDescription": "誠品書店台大店1F緊急逃生出口",
    "source": "臺北市AED自動體外心臟去顫器設置地點"
  },
  {
    "id": "aed-185",
    "layer": "aed_location",
    "placeName": "豐隆大飯店股份有限公司(台北君悅酒店)",
    "address": "松壽路2號",
    "districtCode": "63000020",
    "district": "信義區",
    "latitude": 25.035255,
    "longitude": 121.562439,
    "coordinateStatus": "valid",
    "placeCategory": "旅宿場所",
    "placeType": "飯店",
    "aedPlacementLocation": "一樓商務中心旁",
    "aedLocationDescription": "一樓大廳商務中心旁",
    "source": "臺北市AED自動體外心臟去顫器設置地點"
  },
  {
    "id": "aed-186",
    "layer": "aed_location",
    "placeName": "學校財團法人中華浸信會基督教台灣浸會神學院",
    "address": "吳興街394巷1號",
    "districtCode": "63000020",
    "district": "信義區",
    "latitude": 25.023742,
    "longitude": 121.566763,
    "coordinateStatus": "valid",
    "placeCategory": "學校、大型集會場所",
    "placeType": "大專院校",
    "aedPlacementLocation": "二號辦公室",
    "aedLocationDescription": "AED 安裝區: 緊鄰文具收納櫃旁的那面牆",
    "source": "臺北市AED自動體外心臟去顫器設置地點"
  },
  {
    "id": "aed-187",
    "layer": "aed_location",
    "placeName": "武甲運動事業有限公司古亭營業所",
    "address": "羅斯福路二段93號B1",
    "districtCode": "63000030",
    "district": "大安區",
    "latitude": 25.025228,
    "longitude": 121.524275,
    "coordinateStatus": "valid",
    "placeCategory": "學校、大型集會場所",
    "placeType": "健身房",
    "aedPlacementLocation": "台北市羅斯福路二段93號B1",
    "aedLocationDescription": "B1休息區及櫃檯所交接處。",
    "source": "臺北市AED自動體外心臟去顫器設置地點"
  },
  {
    "id": "aed-188",
    "layer": "aed_location",
    "placeName": "天成大飯店",
    "address": "忠孝西路一段四十三號",
    "districtCode": "63000050",
    "district": "中正區",
    "latitude": 25.0467151,
    "longitude": 121.5156511,
    "coordinateStatus": "valid",
    "placeCategory": "旅宿場所",
    "placeType": "旅館",
    "aedPlacementLocation": "飯店一樓大廳",
    "aedLocationDescription": "飯店一樓大廳旋轉樓梯下方",
    "source": "臺北市AED自動體外心臟去顫器設置地點"
  },
  {
    "id": "aed-189",
    "layer": "aed_location",
    "placeName": "臺北市政府衛生局社區心理衛生中心",
    "address": "金山南路一段5號",
    "districtCode": "63000050",
    "district": "中正區",
    "latitude": 25.041679,
    "longitude": 121.529652,
    "coordinateStatus": "valid",
    "placeCategory": "其他",
    "placeType": "其他場所",
    "aedPlacementLocation": "1樓大廳",
    "aedLocationDescription": "1樓開放空間包含民眾休憩及候診區域",
    "source": "臺北市AED自動體外心臟去顫器設置地點"
  },
  {
    "id": "aed-190",
    "layer": "aed_location",
    "placeName": "交通部公路總局臺北市區監理所",
    "address": "八德路4段21號",
    "districtCode": "63000010",
    "district": "松山區",
    "latitude": 25.048478,
    "longitude": 121.558997,
    "coordinateStatus": "valid",
    "placeCategory": "其他",
    "placeType": "其他場所",
    "aedPlacementLocation": "監理所1樓",
    "aedLocationDescription": "位於1樓服務台正前方牆面",
    "source": "臺北市AED自動體外心臟去顫器設置地點"
  },
  {
    "id": "aed-191",
    "layer": "aed_location",
    "placeName": "GYMEFIT健康店",
    "address": "台北市松山區健康路227號",
    "districtCode": "63000010",
    "district": "松山區",
    "latitude": 25.0543148,
    "longitude": 121.5626807,
    "coordinateStatus": "valid",
    "placeCategory": "其他",
    "placeType": "其他場所",
    "aedPlacementLocation": "入們扣口左側牆上",
    "aedLocationDescription": "入們扣口左側牆上",
    "source": "臺北市AED自動體外心臟去顫器設置地點"
  },
  {
    "id": "aed-192",
    "layer": "aed_location",
    "placeName": "臺北市士林區公所",
    "address": "中正路439號1樓",
    "districtCode": "63000110",
    "district": "士林區",
    "latitude": 25.092762,
    "longitude": 121.519559,
    "coordinateStatus": "valid",
    "placeCategory": "其他",
    "placeType": "其他場所",
    "aedPlacementLocation": "士林行政中心1樓電梯左側",
    "aedLocationDescription": "士林行政中心1樓電梯左側",
    "source": "臺北市AED自動體外心臟去顫器設置地點"
  },
  {
    "id": "aed-193",
    "layer": "aed_location",
    "placeName": "香港商世界健身事業有限公司台北松仁分公司",
    "address": "松仁路277號B1.1樓",
    "districtCode": "63000020",
    "district": "信義區",
    "latitude": 25.024338,
    "longitude": 121.569739,
    "coordinateStatus": "valid",
    "placeCategory": "學校、大型集會場所",
    "placeType": "健身房",
    "aedPlacementLocation": "健身中心B1",
    "aedLocationDescription": "教練櫃台旁",
    "source": "臺北市AED自動體外心臟去顫器設置地點"
  },
  {
    "id": "aed-194",
    "layer": "aed_location",
    "placeName": "臺北南港展覽館2館",
    "address": "經貿二路2號",
    "districtCode": "63000090",
    "district": "南港區",
    "latitude": 25.056239,
    "longitude": 121.615618,
    "coordinateStatus": "valid",
    "placeCategory": "其他",
    "placeType": "其他場所",
    "aedPlacementLocation": "展覽館7樓",
    "aedLocationDescription": "服務台附近",
    "source": "臺北市AED自動體外心臟去顫器設置地點"
  },
  {
    "id": "aed-195",
    "layer": "aed_location",
    "placeName": "Curves 女性30分鐘環狀運動 大安店",
    "address": "信義路三段192號2樓",
    "districtCode": "63000030",
    "district": "大安區",
    "latitude": 25.0331889,
    "longitude": 121.5430092,
    "coordinateStatus": "valid",
    "placeCategory": "學校、大型集會場所",
    "placeType": "健身房",
    "aedPlacementLocation": "台北市大安區信義路三段192號2樓",
    "aedLocationDescription": "大門入口處",
    "source": "臺北市AED自動體外心臟去顫器設置地點"
  },
  {
    "id": "aed-196",
    "layer": "aed_location",
    "placeName": "交通部觀光署",
    "address": "忠孝東路4段290號9樓",
    "districtCode": "63000030",
    "district": "大安區",
    "latitude": 25.041247,
    "longitude": 121.555697,
    "coordinateStatus": "valid",
    "placeCategory": "其他",
    "placeType": "其他場所",
    "aedPlacementLocation": "9樓服務台",
    "aedLocationDescription": "9樓服務台",
    "source": "臺北市AED自動體外心臟去顫器設置地點"
  },
  {
    "id": "aed-197",
    "layer": "aed_location",
    "placeName": "台北亞都麗緻大飯店",
    "address": "民權東路2段41號",
    "districtCode": "63000040",
    "district": "中山區",
    "latitude": 25.06282,
    "longitude": 121.530058,
    "coordinateStatus": "valid",
    "placeCategory": "其他",
    "placeType": "其他場所",
    "aedPlacementLocation": "台北市民權東路二段41號",
    "aedLocationDescription": "飯店大廳",
    "source": "臺北市AED自動體外心臟去顫器設置地點"
  },
  {
    "id": "aed-198",
    "layer": "aed_location",
    "placeName": "香港商世界健身事業有限公司忠孝分公司",
    "address": "忠孝東路4段201號3樓",
    "districtCode": "63000030",
    "district": "大安區",
    "latitude": 25.041677,
    "longitude": 121.551655,
    "coordinateStatus": "valid",
    "placeCategory": "學校、大型集會場所",
    "placeType": "健身房",
    "aedPlacementLocation": "健身中心三樓洽談區",
    "aedLocationDescription": "香港商世界健身事業有限公司忠孝分公司(10690 台北市大安區忠孝東路四段201號3F)",
    "source": "臺北市AED自動體外心臟去顫器設置地點"
  },
  {
    "id": "aed-199",
    "layer": "aed_location",
    "placeName": "香港商世界健身事業有限公司飛動公館分公司",
    "address": "羅斯福路三段281號",
    "districtCode": "63000030",
    "district": "大安區",
    "latitude": 25.018002,
    "longitude": 121.531381,
    "coordinateStatus": "valid",
    "placeCategory": "學校、大型集會場所",
    "placeType": "健身房",
    "aedPlacementLocation": "櫃台大廳",
    "aedLocationDescription": "櫃檯前方",
    "source": "臺北市AED自動體外心臟去顫器設置地點"
  },
  {
    "id": "aed-200",
    "layer": "aed_location",
    "placeName": "嘉禾新村",
    "address": "永春街131巷",
    "districtCode": "63000050",
    "district": "中正區",
    "latitude": 25.0156342,
    "longitude": 121.5269975,
    "coordinateStatus": "valid",
    "placeCategory": "觀光旅遊地區",
    "placeType": "文化園區",
    "aedPlacementLocation": "嘉禾故事館服務台",
    "aedLocationDescription": "嘉禾故事館服務台",
    "source": "臺北市AED自動體外心臟去顫器設置地點"
  },
  {
    "id": "aed-201",
    "layer": "aed_location",
    "placeName": "臺北市私立延平高級中學",
    "address": "建國南路1段275號",
    "districtCode": "63000030",
    "district": "大安區",
    "latitude": 25.036378,
    "longitude": 121.538413,
    "coordinateStatus": "valid",
    "placeCategory": "學校、大型集會場所",
    "placeType": "高中職",
    "aedPlacementLocation": "操場 司令台",
    "aedLocationDescription": "操場 司令台",
    "source": "臺北市AED自動體外心臟去顫器設置地點"
  },
  {
    "id": "aed-202",
    "layer": "aed_location",
    "placeName": "臺北市萬華老人服務中心",
    "address": "開封街二段39號3樓",
    "districtCode": "63000070",
    "district": "萬華區",
    "latitude": 25.04714076,
    "longitude": 121.5064315,
    "coordinateStatus": "valid",
    "placeCategory": "其他",
    "placeType": "其他場所",
    "aedPlacementLocation": "萬華老人中心3樓公共區域辦公室旁",
    "aedLocationDescription": "萬華老人服務中心位於福星社宅3樓，AED設置於萬華老人中心公共區域辦公室旁。",
    "source": "臺北市AED自動體外心臟去顫器設置地點"
  },
  {
    "id": "aed-203",
    "layer": "aed_location",
    "placeName": "臺北市立石牌國民中學",
    "address": "石牌路一段139號",
    "districtCode": "63000120",
    "district": "北投區",
    "latitude": 25.114965,
    "longitude": 121.514231,
    "coordinateStatus": "valid",
    "placeCategory": "學校、大型集會場所",
    "placeType": "國中",
    "aedPlacementLocation": "總務前穿堂(701教室旁)",
    "aedLocationDescription": "總務前穿堂(701教室旁)",
    "source": "臺北市AED自動體外心臟去顫器設置地點"
  },
  {
    "id": "aed-204",
    "layer": "aed_location",
    "placeName": "GonnaFat-權宇",
    "address": "長安東路二段99號2樓",
    "districtCode": "63000040",
    "district": "中山區",
    "latitude": 25.0485735,
    "longitude": 121.5349587,
    "coordinateStatus": "valid",
    "placeCategory": "學校、大型集會場所",
    "placeType": "健身房",
    "aedPlacementLocation": "二樓櫃台旁",
    "aedLocationDescription": "全家旁樓梯",
    "source": "臺北市AED自動體外心臟去顫器設置地點"
  },
  {
    "id": "aed-205",
    "layer": "aed_location",
    "placeName": "財團法人台北市文化基金會台北當代藝術館",
    "address": "長安西路39號",
    "districtCode": "63000060",
    "district": "大同區",
    "latitude": 25.050725,
    "longitude": 121.518975,
    "coordinateStatus": "valid",
    "placeCategory": "大型休閒場所",
    "placeType": "美術館",
    "aedPlacementLocation": "售票大廳處",
    "aedLocationDescription": "放置於售票服務大廳",
    "source": "臺北市AED自動體外心臟去顫器設置地點"
  },
  {
    "id": "aed-206",
    "layer": "aed_location",
    "placeName": "醫療財團法人好心肝基金會好心肝診所",
    "address": "公園路30號2樓之2",
    "districtCode": "63000050",
    "district": "中正區",
    "latitude": 25.044454,
    "longitude": 121.516835,
    "coordinateStatus": "valid",
    "placeCategory": "其他",
    "placeType": "其他場所",
    "aedPlacementLocation": "醫療財團法人好心肝基金會好心肝診所",
    "aedLocationDescription": "好心肝診所防火門處",
    "source": "臺北市AED自動體外心臟去顫器設置地點"
  },
  {
    "id": "aed-207",
    "layer": "aed_location",
    "placeName": "衛生福利部中央健康保險署臺北業務組",
    "address": "公園路15之1號5樓",
    "districtCode": "63000050",
    "district": "中正區",
    "latitude": 25.044786,
    "longitude": 121.517406,
    "coordinateStatus": "valid",
    "placeCategory": "其他",
    "placeType": "其他場所",
    "aedPlacementLocation": "聯合服務中心五樓服務台前方",
    "aedLocationDescription": "聯合服務中心五樓服務台前方",
    "source": "臺北市AED自動體外心臟去顫器設置地點"
  },
  {
    "id": "aed-208",
    "layer": "aed_location",
    "placeName": "公務人員保障暨培訓委員會",
    "address": "試院路1之3號",
    "districtCode": "63000080",
    "district": "文山區",
    "latitude": 24.987862,
    "longitude": 121.549293,
    "coordinateStatus": "valid",
    "placeCategory": "其他",
    "placeType": "其他場所",
    "aedPlacementLocation": "玉衡樓1樓大廳",
    "aedLocationDescription": "玉衡樓1樓大廳",
    "source": "臺北市AED自動體外心臟去顫器設置地點"
  },
  {
    "id": "aed-209",
    "layer": "aed_location",
    "placeName": "衛生福利部疾病管制署研檢南港臨時辦公室",
    "address": "研究院路二段128號(中央研究院院區內)",
    "districtCode": "63000090",
    "district": "南港區",
    "latitude": 25.04201962,
    "longitude": 121.6166635,
    "coordinateStatus": "valid",
    "placeCategory": "其他",
    "placeType": "其他場所",
    "aedPlacementLocation": "研檢南港臨時辦公室一樓大廳",
    "aedLocationDescription": "研檢南港臨時辦公室大門入口右側(警衛櫃台對面)",
    "source": "臺北市AED自動體外心臟去顫器設置地點"
  },
  {
    "id": "aed-210",
    "layer": "aed_location",
    "placeName": "國營臺灣鐵路股份有限公司北區營運處臺北運務段 南港站",
    "address": "南港路1段313號",
    "districtCode": "63000090",
    "district": "南港區",
    "latitude": 25.053216,
    "longitude": 121.607058,
    "coordinateStatus": "valid",
    "placeCategory": "交通要衝",
    "placeType": "台鐵車站",
    "aedPlacementLocation": "第二月台行車室門前",
    "aedLocationDescription": "第二月台行車室門前",
    "source": "臺北市AED自動體外心臟去顫器設置地點"
  },
  {
    "id": "aed-211",
    "layer": "aed_location",
    "placeName": "衛生福利部",
    "address": "忠孝東路六段488號",
    "districtCode": "63000090",
    "district": "南港區",
    "latitude": 25.050197,
    "longitude": 121.595335,
    "coordinateStatus": "valid",
    "placeCategory": "其他",
    "placeType": "其他場所",
    "aedPlacementLocation": "1樓東側梯廳前",
    "aedLocationDescription": "1樓東側梯廳前",
    "source": "臺北市AED自動體外心臟去顫器設置地點"
  },
  {
    "id": "aed-212",
    "layer": "aed_location",
    "placeName": "衛生福利部",
    "address": "忠孝東路六段488號",
    "districtCode": "63000090",
    "district": "南港區",
    "latitude": 25.050197,
    "longitude": 121.595335,
    "coordinateStatus": "valid",
    "placeCategory": "其他",
    "placeType": "其他場所",
    "aedPlacementLocation": "8樓西側公共空間",
    "aedLocationDescription": "衛生福利大樓8樓西側公共空間",
    "source": "臺北市AED自動體外心臟去顫器設置地點"
  },
  {
    "id": "aed-213",
    "layer": "aed_location",
    "placeName": "衛生福利部",
    "address": "忠孝東路六段488號",
    "districtCode": "63000090",
    "district": "南港區",
    "latitude": 25.050197,
    "longitude": 121.595335,
    "coordinateStatus": "valid",
    "placeCategory": "其他",
    "placeType": "其他場所",
    "aedPlacementLocation": "3樓西側哺乳室前",
    "aedLocationDescription": "衛生福利大樓3樓西側哺乳室前",
    "source": "臺北市AED自動體外心臟去顫器設置地點"
  },
  {
    "id": "aed-214",
    "layer": "aed_location",
    "placeName": "中國科技大學臺北校區",
    "address": "興隆路3段56號",
    "districtCode": "63000080",
    "district": "文山區",
    "latitude": 24.997535,
    "longitude": 121.554239,
    "coordinateStatus": "valid",
    "placeCategory": "學校、大型集會場所",
    "placeType": "大專院校",
    "aedPlacementLocation": "中山育樂館2樓",
    "aedLocationDescription": "中山育樂館2樓舞台左前方",
    "source": "臺北市AED自動體外心臟去顫器設置地點"
  },
  {
    "id": "aed-215",
    "layer": "aed_location",
    "placeName": "實踐大學台北校區",
    "address": "大直街70號",
    "districtCode": "63000040",
    "district": "中山區",
    "latitude": 25.084817,
    "longitude": 121.544749,
    "coordinateStatus": "valid",
    "placeCategory": "學校、大型集會場所",
    "placeType": "大專院校",
    "aedPlacementLocation": "G棟1樓衛生保健一組前",
    "aedLocationDescription": "實踐大學衛保組，G棟一樓衛生保健一組門口",
    "source": "臺北市AED自動體外心臟去顫器設置地點"
  },
  {
    "id": "aed-216",
    "layer": "aed_location",
    "placeName": "愛健康肌力教室",
    "address": "內湖路二段73號1樓",
    "districtCode": "63000100",
    "district": "內湖區",
    "latitude": 25.079821,
    "longitude": 121.5823711,
    "coordinateStatus": "valid",
    "placeCategory": "其他",
    "placeType": "其他場所",
    "aedPlacementLocation": "門口",
    "aedLocationDescription": "進門左側",
    "source": "臺北市AED自動體外心臟去顫器設置地點"
  },
  {
    "id": "aed-217",
    "layer": "aed_location",
    "placeName": "臺北市立金華國民中學",
    "address": "新生南路二段32號",
    "districtCode": "63000030",
    "district": "大安區",
    "latitude": 25.031201,
    "longitude": 121.533178,
    "coordinateStatus": "valid",
    "placeCategory": "其他",
    "placeType": "其他場所",
    "aedPlacementLocation": "中穿堂樓梯旁廊道",
    "aedLocationDescription": "中穿堂樓梯旁廊道",
    "source": "臺北市AED自動體外心臟去顫器設置地點"
  },
  {
    "id": "aed-218",
    "layer": "aed_location",
    "placeName": "財團法人臺灣敦睦聯誼會所屬作業組織圓山大飯店",
    "address": "中山北路4段1巷1號",
    "districtCode": "63000040",
    "district": "中山區",
    "latitude": 25.078611,
    "longitude": 121.526287,
    "coordinateStatus": "valid",
    "placeCategory": "旅宿場所",
    "placeType": "旅館",
    "aedPlacementLocation": "本館2樓健身房",
    "aedLocationDescription": "本館2樓健身房內",
    "source": "臺北市AED自動體外心臟去顫器設置地點"
  },
  {
    "id": "aed-219",
    "layer": "aed_location",
    "placeName": "虎鐵健身工作室",
    "address": "重慶南路一段88號2樓",
    "districtCode": "63000050",
    "district": "中正區",
    "latitude": 25.043012,
    "longitude": 121.512982,
    "coordinateStatus": "valid",
    "placeCategory": "大型休閒場所",
    "placeType": "運動場館(如小巨蛋)",
    "aedPlacementLocation": "入口處",
    "aedLocationDescription": "入口處",
    "source": "臺北市AED自動體外心臟去顫器設置地點"
  },
  {
    "id": "aed-220",
    "layer": "aed_location",
    "placeName": "潤泰百益股份有限公司/CITYLINK松山壹號店",
    "address": "松山路11號",
    "districtCode": "63000020",
    "district": "信義區",
    "latitude": 25.04919,
    "longitude": 121.578299,
    "coordinateStatus": "valid",
    "placeCategory": "大型購物場所",
    "placeType": "商場",
    "aedPlacementLocation": "2樓服務台 右方",
    "aedLocationDescription": "2樓服務台 右方",
    "source": "臺北市AED自動體外心臟去顫器設置地點"
  },
  {
    "id": "aed-221",
    "layer": "aed_location",
    "placeName": "欣欣大眾市場股份有限公司",
    "address": "林森北路247號",
    "districtCode": "63000040",
    "district": "中山區",
    "latitude": 25.05421,
    "longitude": 121.525601,
    "coordinateStatus": "valid",
    "placeCategory": "大型購物場所",
    "placeType": "百貨業",
    "aedPlacementLocation": "B1美食街",
    "aedLocationDescription": "欣欣百貨位在台北市中山區林森北路14、15號公園旁，距中山捷運站1,000公尺，對面為晶華酒店，是多元化的百貨商場，包含Wellcome超級市場、生活工場、美食街、百貨商場及晶華影城、星巴克咖啡館、藍屋日本餐廳與古拉爵意大利餐廳。",
    "source": "臺北市AED自動體外心臟去顫器設置地點"
  },
  {
    "id": "aed-222",
    "layer": "aed_location",
    "placeName": "華山1914文化創意產業園區",
    "address": "八德路一段一號",
    "districtCode": "63000050",
    "district": "中正區",
    "latitude": 25.04413,
    "longitude": 121.529399,
    "coordinateStatus": "valid",
    "placeCategory": "觀光旅遊地區",
    "placeType": "文化園區",
    "aedPlacementLocation": "紅磚區哨所",
    "aedLocationDescription": "紅磚區保全警衛室",
    "source": "臺北市AED自動體外心臟去顫器設置地點"
  },
  {
    "id": "aed-223",
    "layer": "aed_location",
    "placeName": "剝皮寮歷史街區西側",
    "address": "廣州街151號",
    "districtCode": "63000070",
    "district": "萬華區",
    "latitude": 25.036768,
    "longitude": 121.501879,
    "coordinateStatus": "valid",
    "placeCategory": "觀光旅遊地區",
    "placeType": "文化園區",
    "aedPlacementLocation": "廣州街155號",
    "aedLocationDescription": "位於廣州街155號後門相接廣場處",
    "source": "臺北市AED自動體外心臟去顫器設置地點"
  },
  {
    "id": "aed-224",
    "layer": "aed_location",
    "placeName": "國立臺灣師範大學公館校區(汀州路4段88號)",
    "address": "汀州路4段88號",
    "districtCode": "63000080",
    "district": "文山區",
    "latitude": 25.007963,
    "longitude": 121.536905,
    "coordinateStatus": "valid",
    "placeCategory": "學校、大型集會場所",
    "placeType": "大專院校",
    "aedPlacementLocation": "公館校區學七舍1樓",
    "aedLocationDescription": "學七舍1樓大廳",
    "source": "臺北市AED自動體外心臟去顫器設置地點"
  },
  {
    "id": "aed-225",
    "layer": "aed_location",
    "placeName": "台北京站威秀影城",
    "address": "市民大道一段209號5F",
    "districtCode": "63000060",
    "district": "大同區",
    "latitude": 25.049369,
    "longitude": 121.517479,
    "coordinateStatus": "valid",
    "placeCategory": "大型休閒場所",
    "placeType": "電影片映演場所(戲院、電影院)",
    "aedPlacementLocation": "5F大廳",
    "aedLocationDescription": "5F大廳售票處左側",
    "source": "臺北市AED自動體外心臟去顫器設置地點"
  },