[
  {
    "id": "medical-hospital-1",
    "layer": "medical_facility",
    "facilityType": "hospital",
    "facilityName": "郵政醫院（委託中英醫療社團法人經營）",
    "medicalCategory": "醫院",
    "address": "臺北市中正區福州街14號",
    "districtCode": "63000050",
    "district": "中正區",
    "longitude": 121.5186982,
    "latitude": 25.02874869,
    "coordinateStatus": "valid",
    "source": "臺北市公私立醫療院所－臺北市醫院清冊"
  },
  {
    "id": "medical-hospital-2",
    "layer": "medical_facility",
    "facilityType": "hospital",
    "facilityName": "國立台灣大學醫學院附設醫院",
    "medicalCategory": "醫院",
    "address": "臺北市中正區中山南路７、８號；常德街１號",
    "districtCode": "63000050",
    "district": "中正區",
    "longitude": 121.5183428,
    "latitude": 25.03553921,
    "coordinateStatus": "valid",
    "source": "臺北市公私立醫療院所－臺北市醫院清冊"
  },
  {
    "id": "medical-hospital-3",
    "layer": "medical_facility",
    "facilityType": "hospital",
    "facilityName": "國立臺灣大學醫學院附設醫院兒童醫院",
    "medicalCategory": "醫院",
    "address": "臺北市中正區中山南路8號",
    "districtCode": "63000050",
    "district": "中正區",
    "longitude": 121.5187506,
    "latitude": 25.04434314,
    "coordinateStatus": "valid",
    "source": "臺北市公私立醫療院所－臺北市醫院清冊"
  },
  {
    "id": "medical-hospital-4",
    "layer": "medical_facility",
    "facilityType": "hospital",
    "facilityName": "臺北市立聯合醫院",
    "medicalCategory": "醫院",
    "address": "臺北市大同區鄭州路145號",
    "districtCode": "63000060",
    "district": "大同區",
    "longitude": 121.5088874,
    "latitude": 25.05069244,
    "coordinateStatus": "valid",
    "source": "臺北市公私立醫療院所－臺北市醫院清冊"
  },
  {
    "id": "medical-hospital-5",
    "layer": "medical_facility",
    "facilityType": "hospital",
    "facilityName": "泰安醫院",
    "medicalCategory": "醫院",
    "address": "臺北市中山區民權東路二段９２巷２之1號(地下一樓至地上六樓)",
    "districtCode": "63000040",
    "district": "中山區",
    "longitude": 121.5316407,
    "latitude": 25.06145984,
    "coordinateStatus": "valid",
    "source": "臺北市公私立醫療院所－臺北市醫院清冊"
  },
  {
    "id": "medical-hospital-6",
    "layer": "medical_facility",
    "facilityType": "hospital",
    "facilityName": "協和婦女醫院",
    "medicalCategory": "醫院",
    "address": "臺北市中山區松江路85巷5號1，2，3，4樓、93巷6號1，2，4樓",
    "districtCode": "63000040",
    "district": "中山區",
    "longitude": 121.5339434,
    "latitude": 25.05027331,
    "coordinateStatus": "valid",
    "source": "臺北市公私立醫療院所－臺北市醫院清冊"
  },
  {
    "id": "medical-hospital-7",
    "layer": "medical_facility",
    "facilityType": "hospital",
    "facilityName": "台灣基督長老教會馬偕醫療財團法人馬偕紀念醫院",
    "medicalCategory": "醫院",
    "address": "臺北市中山區中山北路二段９２號",
    "districtCode": "63000040",
    "district": "中山區",
    "longitude": 121.522558,
    "latitude": 25.05888423,
    "coordinateStatus": "valid",
    "source": "臺北市公私立醫療院所－臺北市醫院清冊"
  },
  {
    "id": "medical-hospital-8",
    "layer": "medical_facility",
    "facilityType": "hospital",
    "facilityName": "台灣基督長老教會馬偕醫療財團法人馬偕兒童醫院",
    "medicalCategory": "醫院",
    "address": "臺北市中山區中山北路2段92號",
    "districtCode": "63000040",
    "district": "中山區",
    "longitude": 121.522558,
    "latitude": 25.05888423,
    "coordinateStatus": "valid",
    "source": "臺北市公私立醫療院所－臺北市醫院清冊"
  },
  {
    "id": "medical-hospital-9",
    "layer": "medical_facility",
    "facilityType": "hospital",
    "facilityName": "長庚醫療財團法人台北長庚紀念醫院",
    "medicalCategory": "醫院",
    "address": "臺北市松山區敦化北路199號、197號、臺北市松山區敦化北路199巷6號",
    "districtCode": "63000010",
    "district": "松山區",
    "longitude": 121.5485556,
    "latitude": 25.05023183,
    "coordinateStatus": "valid",
    "source": "臺北市公私立醫療院所－臺北市醫院清冊"
  },
  {
    "id": "medical-hospital-10",
    "layer": "medical_facility",
    "facilityType": "hospital",
    "facilityName": "基督復臨安息日會醫療財團法人臺安醫院",
    "medicalCategory": "醫院",
    "address": "臺北市松山區八德路二段424426號\"",
    "districtCode": "63000010",
    "district": "松山區",
    "longitude": 121.5444842,
    "latitude": 25.04758836,
    "coordinateStatus": "valid",
    "source": "臺北市公私立醫療院所－臺北市醫院清冊"
  },
  {
    "id": "medical-hospital-11",
    "layer": "medical_facility",
    "facilityType": "hospital",
    "facilityName": "博仁綜合醫院",
    "medicalCategory": "醫院",
    "address": "臺北市松山區光復北路66號、68號地下一層、68號、68號2至7樓、68號2樓之1至7樓之1、68號2樓之2至7樓之2",
    "districtCode": "63000010",
    "district": "松山區",
    "longitude": 121.557695,
    "latitude": 25.04990354,
    "coordinateStatus": "valid",
    "source": "臺北市公私立醫療院所－臺北市醫院清冊"
  },
  {
    "id": "medical-hospital-12",
    "layer": "medical_facility",
    "facilityType": "hospital",
    "facilityName": "培靈醫院",
    "medicalCategory": "醫院",
    "address": "臺北市松山區八德路四段３５５號",
    "districtCode": "63000010",
    "district": "松山區",
    "longitude": 121.5682821,
    "latitude": 25.04940059,
    "coordinateStatus": "valid",
    "source": "臺北市公私立醫療院所－臺北市醫院清冊"
  },
  {
    "id": "medical-hospital-13",
    "layer": "medical_facility",
    "facilityType": "hospital",
    "facilityName": "中山醫療社團法人中山醫院",
    "medicalCategory": "醫院",
    "address": "臺北市大安區仁愛路四段112巷11號",
    "districtCode": "63000030",
    "district": "大安區",
    "longitude": 121.5497106,
    "latitude": 25.03655173,
    "coordinateStatus": "valid",
    "source": "臺北市公私立醫療院所－臺北市醫院清冊"
  },
  {
    "id": "medical-hospital-14",
    "layer": "medical_facility",
    "facilityType": "hospital",
    "facilityName": "三軍總醫院松山分院附設民眾診療服務處",
    "medicalCategory": "醫院",
    "address": "臺北市松山區健康路１３１號",
    "districtCode": "63000010",
    "district": "松山區",
    "longitude": 121.5577045,
    "latitude": 25.05394015,
    "coordinateStatus": "valid",
    "source": "臺北市公私立醫療院所－臺北市醫院清冊"
  },
  {
    "id": "medical-hospital-15",
    "layer": "medical_facility",
    "facilityType": "hospital",
    "facilityName": "國立臺灣大學醫學院附設癌醫中心醫院",
    "medicalCategory": "醫院",
    "address": "臺北市大安區基隆路 3段155巷57號",
    "districtCode": "63000030",
    "district": "大安區",
    "longitude": 121.5439164,
    "latitude": 25.01449586,
    "coordinateStatus": "valid",
    "source": "臺北市公私立醫療院所－臺北市醫院清冊"
  },
  {
    "id": "medical-hospital-16",
    "layer": "medical_facility",
    "facilityType": "hospital",
    "facilityName": "秀傳醫院",
    "medicalCategory": "醫院",
    "address": "臺北市大安區光復南路116巷1、3、5號1至4樓及地下1樓",
    "districtCode": "63000030",
    "district": "大安區",
    "longitude": 121.5568623,
    "latitude": 25.04311217,
    "coordinateStatus": "valid",
    "source": "臺北市公私立醫療院所－臺北市醫院清冊"
  },
  {
    "id": "medical-hospital-17",
    "layer": "medical_facility",
    "facilityType": "hospital",
    "facilityName": "宏恩醫療財團法人宏恩綜合醫院",
    "medicalCategory": "醫院",
    "address": "臺北市大安區仁愛路四段７１巷１號",
    "districtCode": "63000030",
    "district": "大安區",
    "longitude": 121.5470295,
    "latitude": 25.03849645,
    "coordinateStatus": "valid",
    "source": "臺北市公私立醫療院所－臺北市醫院清冊"
  },
  {
    "id": "medical-hospital-18",
    "layer": "medical_facility",
    "facilityType": "hospital",
    "facilityName": "中心診所醫療財團法人中心綜合醫院",
    "medicalCategory": "醫院",
    "address": "臺北市大安區忠孝東路四段７７號",
    "districtCode": "63000030",
    "district": "大安區",
    "longitude": 121.5473297,
    "latitude": 25.04186487,
    "coordinateStatus": "valid",
    "source": "臺北市公私立醫療院所－臺北市醫院清冊"
  },
  {
    "id": "medical-hospital-19",
    "layer": "medical_facility",
    "facilityType": "hospital",
    "facilityName": "國泰醫療財團法人國泰綜合醫院",
    "medicalCategory": "醫院",
    "address": "臺北市大安區仁愛路四段266巷6號，280號",
    "districtCode": "63000030",
    "district": "大安區",
    "longitude": 121.5528014,
    "latitude": 25.03717848,
    "coordinateStatus": "valid",
    "source": "臺北市公私立醫療院所－臺北市醫院清冊"
  },
  {
    "id": "medical-hospital-20",
    "layer": "medical_facility",
    "facilityType": "hospital",
    "facilityName": "同仁院醫療財團法人萬華醫院",
    "medicalCategory": "醫院",
    "address": "臺北市萬華區中華路二段６０６巷６號",
    "districtCode": "63000070",
    "district": "萬華區",
    "longitude": 121.5098259,
    "latitude": 25.02405006,
    "coordinateStatus": "valid",
    "source": "臺北市公私立醫療院所－臺北市醫院清冊"
  },
  {
    "id": "medical-hospital-21",
    "layer": "medical_facility",
    "facilityType": "hospital",
    "facilityName": "財團法人台灣省私立台北仁濟院附設仁濟醫院",
    "medicalCategory": "醫院",
    "address": "臺北市萬華區廣州街２００，２４３號",
    "districtCode": "63000070",
    "district": "萬華區",
    "longitude": 121.5042335,
    "latitude": 25.03642709,
    "coordinateStatus": "valid",
    "source": "臺北市公私立醫療院所－臺北市醫院清冊"
  },
  {
    "id": "medical-hospital-22",
    "layer": "medical_facility",
    "facilityType": "hospital",
    "facilityName": "西園醫療社團法人西園醫院",
    "medicalCategory": "醫院",
    "address": "臺北市萬華區西園路二段266、268、270、272、276號、185、187、189號",
    "districtCode": "63000070",
    "district": "萬華區",
    "longitude": 121.4945402,
    "latitude": 25.0277877,
    "coordinateStatus": "valid",
    "source": "臺北市公私立醫療院所－臺北市醫院清冊"
  },
  {
    "id": "medical-hospital-23",
    "layer": "medical_facility",
    "facilityType": "hospital",
    "facilityName": "國立臺灣大學醫學院附設醫院北護分院",
    "medicalCategory": "醫院",
    "address": "臺北市萬華區康定路３７號、臺北市萬華區內江街87號",
    "districtCode": "63000070",
    "district": "萬華區",
    "longitude": 121.5025511,
    "latitude": 25.04222858,
    "coordinateStatus": "valid",
    "source": "臺北市公私立醫療院所－臺北市醫院清冊"
  },
  {
    "id": "medical-hospital-24",
    "layer": "medical_facility",
    "facilityType": "hospital",
    "facilityName": "臺北醫學大學附設醫院",
    "medicalCategory": "醫院",
    "address": "臺北市信義區吳興街２５2號、250號",
    "districtCode": "63000020",
    "district": "信義區",
    "longitude": 121.5636377,
    "latitude": 25.02663801,
    "coordinateStatus": "valid",
    "source": "臺北市公私立醫療院所－臺北市醫院清冊"
  },
  {
    "id": "medical-hospital-25",
    "layer": "medical_facility",
    "facilityType": "hospital",
    "facilityName": "新光醫療財團法人新光吳火獅紀念醫院",
    "medicalCategory": "醫院",
    "address": "臺北市士林區文昌路95號及士商路51號、51號2樓、51號3樓、51號4樓、51號5樓、51號6樓、51號7樓、53號、55號、57號",
    "districtCode": "63000110",
    "district": "士林區",
    "longitude": 121.5202887,
    "latitude": 25.0962409,
    "coordinateStatus": "valid",
    "source": "臺北市公私立醫療院所－臺北市醫院清冊"
  },
  {
    "id": "medical-hospital-26",
    "layer": "medical_facility",
    "facilityType": "hospital",
    "facilityName": "三軍總醫院北投分院附設民眾診療服務處",
    "medicalCategory": "醫院",
    "address": "臺北市北投區新民路６０號 中和街二五○號",
    "districtCode": "63000120",
    "district": "北投區",
    "longitude": 121.5097013,
    "latitude": 25.1398048,
    "coordinateStatus": "valid",
    "source": "臺北市公私立醫療院所－臺北市醫院清冊"
  },
  {
    "id": "medical-hospital-27",
    "layer": "medical_facility",
    "facilityType": "hospital",
    "facilityName": "臺北市北投健康管理醫院",
    "medicalCategory": "醫院",
    "address": "臺北市北投區中和街2號",
    "districtCode": "63000120",
    "district": "北投區",
    "longitude": 121.5037059,
    "latitude": 25.13758475,
    "coordinateStatus": "valid",
    "source": "臺北市公私立醫療院所－臺北市醫院清冊"
  },
  {
    "id": "medical-hospital-28",
    "layer": "medical_facility",
    "facilityType": "hospital",
    "facilityName": "醫療財團法人辜公亮基金會和信治癌中心醫院",
    "medicalCategory": "醫院",
    "address": "臺北市北投區立德路１２５號",
    "districtCode": "63000120",
    "district": "北投區",
    "longitude": 121.4720113,
    "latitude": 25.12834055,
    "coordinateStatus": "valid",
    "source": "臺北市公私立醫療院所－臺北市醫院清冊"
  },
  {
    "id": "medical-hospital-29",
    "layer": "medical_facility",
    "facilityType": "hospital",
    "facilityName": "振興醫療財團法人振興醫院",
    "medicalCategory": "醫院",
    "address": "臺北市北投區振興街４５號",
    "districtCode": "63000120",
    "district": "北投區",
    "longitude": 121.5224005,
    "latitude": 25.11754255,
    "coordinateStatus": "valid",
    "source": "臺北市公私立醫療院所－臺北市醫院清冊"
  },
  {
    "id": "medical-hospital-30",
    "layer": "medical_facility",
    "facilityType": "hospital",
    "facilityName": "臺北市立關渡醫院─委託臺北榮民總醫院經營",
    "medicalCategory": "醫院",
    "address": "臺北市北投區知行路二二五巷十二號",
    "districtCode": "63000120",
    "district": "北投區",
    "longitude": 121.4663577,
    "latitude": 25.12018758,
    "coordinateStatus": "valid",
    "source": "臺北市公私立醫療院所－臺北市醫院清冊"
  },
  {
    "id": "medical-hospital-31",
    "layer": "medical_facility",
    "facilityType": "hospital",
    "facilityName": "臺北榮民總醫院",
    "medicalCategory": "醫院",
    "address": "臺北市北投區石牌路二段201號、322號",
    "districtCode": "63000120",
    "district": "北投區",
    "longitude": 121.5191658,
    "latitude": 25.11918228,
    "coordinateStatus": "valid",
    "source": "臺北市公私立醫療院所－臺北市醫院清冊"
  },
  {
    "id": "medical-hospital-32",
    "layer": "medical_facility",
    "facilityType": "hospital",
    "facilityName": "中國醫藥大學附設醫院臺北分院",
    "medicalCategory": "醫院",
    "address": "臺北市內湖區內湖路二段360號",
    "districtCode": "63000100",
    "district": "內湖區",
    "longitude": 121.5905997,
    "latitude": 25.08212491,
    "coordinateStatus": "valid",
    "source": "臺北市公私立醫療院所－臺北市醫院清冊"
  },
  {
    "id": "medical-hospital-33",
    "layer": "medical_facility",
    "facilityType": "hospital",
    "facilityName": "康寧醫療財團法人康寧醫院",
    "medicalCategory": "醫院",
    "address": "臺北市內湖區成功路五段４２０巷２６號",
    "districtCode": "63000100",
    "district": "內湖區",
    "longitude": 121.6087792,
    "latitude": 25.07595162,
    "coordinateStatus": "valid",
    "source": "臺北市公私立醫療院所－臺北市醫院清冊"
  },
  {
    "id": "medical-hospital-34",
    "layer": "medical_facility",
    "facilityType": "hospital",
    "facilityName": "三軍總醫院附設民眾診療服務處",
    "medicalCategory": "醫院",
    "address": "臺北市內湖區成功路二段325號；臺北市中正區汀州路3段40號",
    "districtCode": "63000100",
    "district": "內湖區",
    "longitude": 121.5919821,
    "latitude": 25.07180042,
    "coordinateStatus": "valid",
    "source": "臺北市公私立醫療院所－臺北市醫院清冊"
  },
  {
    "id": "medical-hospital-35",
    "layer": "medical_facility",
    "facilityType": "hospital",
    "facilityName": "臺北市立萬芳醫院－委託財團法人臺北醫學大學辦理",
    "medicalCategory": "醫院",
    "address": "臺北市文山區興隆路三段111號",
    "districtCode": "63000080",
    "district": "文山區",
    "longitude": 121.5583303,
    "latitude": 25.00030628,
    "coordinateStatus": "valid",
    "source": "臺北市公私立醫療院所－臺北市醫院清冊"
  },
  {
    "id": "medical-hospital-36",
    "layer": "medical_facility",
    "facilityType": "hospital",
    "facilityName": "景美醫院",
    "medicalCategory": "醫院",
    "address": "臺北市文山區羅斯福路六段280號、文山區育英街2巷18號、文山區羅斯福路六段276巷1號1樓",
    "districtCode": "63000080",
    "district": "文山區",
    "longitude": 121.5405334,
    "latitude": 24.99001925,
    "coordinateStatus": "valid",
    "source": "臺北市公私立醫療院所－臺北市醫院清冊"
  },
  {
    "id": "medical-hospital-37",
    "layer": "medical_facility",
    "facilityType": "hospital",
    "facilityName": "德威國際牙醫口腔醫院",
    "medicalCategory": "醫院",
    "address": "臺北市內湖區內湖路一段659號1樓",
    "districtCode": "63000100",
    "district": "內湖區",
    "longitude": 121.5751861,
    "latitude": 25.08056184,
    "coordinateStatus": "valid",
    "source": "臺北市公私立醫療院所－臺北市醫院清冊"
  },
  {
    "id": "medical-clinic-1",
    "layer": "medical_facility",
    "facilityType": "clinic",
    "facilityName": "葛鎂診所",
    "medicalCategory": "診所",
    "address": "臺北市中正區館前路34號9樓",
    "districtCode": "63000050",
    "cityCode": "63000",
    "district": "中正區",
    "longitude": 121.5149085,
    "latitude": 25.04466557,
    "coordinateStatus": "valid",
    "source": "臺北市公私立醫療院所－臺北市診所清冊"
  },
  {
    "id": "medical-clinic-2",
    "layer": "medical_facility",
    "facilityType": "clinic",
    "facilityName": "永康身心診所",
    "medicalCategory": "診所",
    "address": "臺北市中正區金山南路1段127號1樓",
    "districtCode": "63000050",
    "cityCode": "63000",
    "district": "中正區",
    "longitude": 121.527716,
    "latitude": 25.0356227,
    "coordinateStatus": "valid",
    "source": "臺北市公私立醫療院所－臺北市診所清冊"
  },
  {
    "id": "medical-clinic-3",
    "layer": "medical_facility",
    "facilityType": "clinic",
    "facilityName": "台北新顏診所",
    "medicalCategory": "診所",
    "address": "臺北市中正區許昌街42號(6樓)",
    "districtCode": "63000050",
    "cityCode": "63000",
    "district": "中正區",
    "longitude": 121.5154552,
    "latitude": 25.0452932,
    "coordinateStatus": "valid",
    "source": "臺北市公私立醫療院所－臺北市診所清冊"
  },
  {
    "id": "medical-clinic-4",
    "layer": "medical_facility",
    "facilityType": "clinic",
    "facilityName": "醫療財團法人徐元智先生醫藥基金會遠東聯合診所",
    "medicalCategory": "診所",
    "address": "臺北市中正區永綏街8至14號",
    "districtCode": "63000050",
    "cityCode": "63000",
    "district": "中正區",
    "longitude": 121.5110467,
    "latitude": 25.0429887,
    "coordinateStatus": "valid",
    "source": "臺北市公私立醫療院所－臺北市診所清冊"
  },
  {
    "id": "medical-clinic-5",
    "layer": "medical_facility",
    "facilityType": "clinic",
    "facilityName": "醫療財團法人好心肝基金會好心肝診所",
    "medicalCategory": "診所",
    "address": "臺北市中正區公園路30號2樓之2、8樓之1、8樓之2",
    "districtCode": "63000050",
    "cityCode": "63000",
    "district": "中正區",
    "longitude": 121.5168566,
    "latitude": 25.0444824,
    "coordinateStatus": "valid",
    "source": "臺北市公私立醫療院所－臺北市診所清冊"
  },
  {
    "id": "medical-clinic-6",
    "layer": "medical_facility",
    "facilityType": "clinic",
    "facilityName": "蔡瑞芳眼科診所",
    "medicalCategory": "診所",
    "address": "臺北市中正區羅斯福路一段73號(實際營業地址一層)、75號2樓",
    "districtCode": "63000050",
    "cityCode": "63000",
    "district": "中正區",
    "longitude": 121.5197163,
    "latitude": 25.0314662,
    "coordinateStatus": "valid",
    "source": "臺北市公私立醫療院所－臺北市診所清冊"
  },
  {
    "id": "medical-clinic-7",
    "layer": "medical_facility",
    "facilityType": "clinic",
    "facilityName": "小千醫師診所",
    "medicalCategory": "診所",
    "address": "臺北市中正區忠孝東路二段134巷16號",
    "districtCode": "63000050",
    "cityCode": "63000",
    "district": "中正區",
    "longitude": 121.5316285,
    "latitude": 25.04107676,
    "coordinateStatus": "valid",
    "source": "臺北市公私立醫療院所－臺北市診所清冊"
  },
  {
    "id": "medical-clinic-8",
    "layer": "medical_facility",
    "facilityType": "clinic",
    "facilityName": "蘭心診所",
    "medicalCategory": "診所",
    "address": "臺北市中正區南昌路二段11號、15號",
    "districtCode": "63000050",
    "cityCode": "63000",
    "district": "中正區",
    "longitude": 121.5195177,
    "latitude": 25.02833674,
    "coordinateStatus": "valid",
    "source": "臺北市公私立醫療院所－臺北市診所清冊"
  },
  {
    "id": "medical-clinic-9",
    "layer": "medical_facility",
    "facilityType": "clinic",
    "facilityName": "祈約美醫皮膚科診所",
    "medicalCategory": "診所",
    "address": "臺北市中正區濟南路2段17號4樓",
    "districtCode": "63000050",
    "cityCode": "63000",
    "district": "中正區",
    "longitude": 121.5277583,
    "latitude": 25.04127111,
    "coordinateStatus": "valid",
    "source": "臺北市公私立醫療院所－臺北市診所清冊"
  },
  {
    "id": "medical-clinic-10",
    "layer": "medical_facility",
    "facilityType": "clinic",
    "facilityName": "惠森復健科診所",
    "medicalCategory": "診所",
    "address": "臺北市中正區師大路172號、172號之1號",
    "districtCode": "63000050",
    "cityCode": "63000",
    "district": "中正區",
    "longitude": 121.5254452,
    "latitude": 25.02112716,
    "coordinateStatus": "valid",
    "source": "臺北市公私立醫療院所－臺北市診所清冊"
  },
  {
    "id": "medical-clinic-11",
    "layer": "medical_facility",
    "facilityType": "clinic",
    "facilityName": "皇妍時尚整形外科診所",
    "medicalCategory": "診所",
    "address": "臺北市中正區忠孝西路一段6號8樓",
    "districtCode": "63000050",
    "cityCode": "63000",
    "district": "中正區",
    "longitude": 121.5180284,
    "latitude": 25.04582575,
    "coordinateStatus": "valid",
    "source": "臺北市公私立醫療院所－臺北市診所清冊"
  },
  {
    "id": "medical-clinic-12",
    "layer": "medical_facility",
    "facilityType": "clinic",
    "facilityName": "東妍診所",
    "medicalCategory": "診所",
    "address": "臺北市中正區信義路二段161巷8號2樓、8號2樓之1、12號(實際營業地址1、2樓)",
    "districtCode": "63000050",
    "cityCode": "63000",
    "district": "中正區",
    "longitude": 121.5288391,
    "latitude": 25.03442192,
    "coordinateStatus": "valid",
    "source": "臺北市公私立醫療院所－臺北市診所清冊"
  },
  {
    "id": "medical-clinic-13",
    "layer": "medical_facility",
    "facilityType": "clinic",
    "facilityName": "宜康診所",
    "medicalCategory": "診所",
    "address": "臺北市中正區新生南路一段148號",
    "districtCode": "63000050",
    "cityCode": "63000",
    "district": "中正區",
    "longitude": 121.532466,
    "latitude": 25.03527506,
    "coordinateStatus": "valid",
    "source": "臺北市公私立醫療院所－臺北市診所清冊"
  },
  {
    "id": "medical-clinic-14",
    "layer": "medical_facility",
    "facilityType": "clinic",
    "facilityName": "藝群台北診所",
    "medicalCategory": "診所",
    "address": "臺北市中正區忠孝西路一段102號4樓",
    "districtCode": "63000050",
    "cityCode": "63000",
    "district": "中正區",
    "longitude": 121.5124848,
    "latitude": 25.04721182,
    "coordinateStatus": "valid",
    "source": "臺北市公私立醫療院所－臺北市診所清冊"
  },
  {
    "id": "medical-clinic-15",
    "layer": "medical_facility",
    "facilityType": "clinic",
    "facilityName": "君綺美形診所",
    "medicalCategory": "診所",
    "address": "臺北市中正區忠孝西路1段6號13樓",
    "districtCode": "63000050",
    "cityCode": "63000",
    "district": "中正區",
    "longitude": 121.5180284,
    "latitude": 25.04582575,
    "coordinateStatus": "valid",
    "source": "臺北市公私立醫療院所－臺北市診所清冊"
  },
  {
    "id": "medical-clinic-16",
    "layer": "medical_facility",
    "facilityType": "clinic",
    "facilityName": "美嘉美整形外科診所",
    "medicalCategory": "診所",
    "address": "臺北市中正區信義路二段251號5樓",
    "districtCode": "63000050",
    "cityCode": "63000",
    "district": "中正區",
    "longitude": 121.5313467,
    "latitude": 25.03382685,
    "coordinateStatus": "valid",
    "source": "臺北市公私立醫療院所－臺北市診所清冊"
  },
  {
    "id": "medical-clinic-17",
    "layer": "medical_facility",
    "facilityType": "clinic",
    "facilityName": "日明耀診所",
    "medicalCategory": "診所",
    "address": "臺北市中正區重慶南路一段66之1號2樓之1",
    "districtCode": "63000050",
    "cityCode": "63000",
    "district": "中正區",
    "longitude": 121.5130979,
    "latitude": 25.04360909,
    "coordinateStatus": "valid",
    "source": "臺北市公私立醫療院所－臺北市診所清冊"
  },
  {
    "id": "medical-clinic-18",
    "layer": "medical_facility",
    "facilityType": "clinic",
    "facilityName": "立光診所",
    "medicalCategory": "診所",
    "address": "臺北市中正區博愛路76號2樓",
    "districtCode": "63000050",
    "cityCode": "63000",
    "district": "中正區",
    "longitude": 121.5113602,
    "latitude": 25.04467234,
    "coordinateStatus": "valid",
    "source": "臺北市公私立醫療院所－臺北市診所清冊"
  },
  {
    "id": "medical-clinic-19",
    "layer": "medical_facility",
    "facilityType": "clinic",
    "facilityName": "和眾綜合診所",
    "medicalCategory": "診所",
    "address": "臺北市中正區忠孝西路一段6號",
    "districtCode": "63000050",
    "cityCode": "63000",
    "district": "中正區",
    "longitude": 121.5180284,
    "latitude": 25.04582575,
    "coordinateStatus": "valid",
    "source": "臺北市公私立醫療院所－臺北市診所清冊"
  },
  {
    "id": "medical-clinic-20",
    "layer": "medical_facility",
    "facilityType": "clinic",
    "facilityName": "家禾診所",
    "medicalCategory": "診所",
    "address": "臺北市中正區三元街217號1樓、2樓",
    "districtCode": "63000050",
    "cityCode": "63000",
    "district": "中正區",
    "longitude": 121.513373,
    "latitude": 25.02765765,
    "coordinateStatus": "valid",
    "source": "臺北市公私立醫療院所－臺北市診所清冊"
  },
  {
    "id": "medical-clinic-21",
    "layer": "medical_facility",
    "facilityType": "clinic",
    "facilityName": "虹約復健專科診所",
    "medicalCategory": "診所",
    "address": "臺北市中正區信義路二段91號2樓之2",
    "districtCode": "63000050",
    "cityCode": "63000",
    "district": "中正區",
    "longitude": 121.5269608,
    "latitude": 25.03438881,
    "coordinateStatus": "valid",
    "source": "臺北市公私立醫療院所－臺北市診所清冊"
  },
  {
    "id": "medical-clinic-22",
    "layer": "medical_facility",
    "facilityType": "clinic",
    "facilityName": "百麗診所",
    "medicalCategory": "診所",
    "address": "臺北市中正區林森南路10號6樓之2",
    "districtCode": "63000050",
    "cityCode": "63000",
    "district": "中正區",
    "longitude": 121.5226184,
    "latitude": 25.04274483,
    "coordinateStatus": "valid",
    "source": "臺北市公私立醫療院所－臺北市診所清冊"
  },
  {
    "id": "medical-clinic-23",
    "layer": "medical_facility",
    "facilityType": "clinic",
    "facilityName": "波菲特醫美診所",
    "medicalCategory": "診所",
    "address": "臺北市中正區羅斯福路二段116號4樓之1",
    "districtCode": "63000050",
    "cityCode": "63000",
    "district": "中正區",
    "longitude": 121.5226827,
    "latitude": 25.0263915,
    "coordinateStatus": "valid",
    "source": "臺北市公私立醫療院所－臺北市診所清冊"
  },
  {
    "id": "medical-clinic-24",
    "layer": "medical_facility",
    "facilityType": "clinic",
    "facilityName": "靚白天使時尚美學診所",
    "medicalCategory": "診所",
    "address": "臺北市中正區重慶南路一段13號9樓",
    "districtCode": "63000050",
    "cityCode": "63000",
    "district": "中正區",
    "longitude": 121.5133719,
    "latitude": 25.04610266,
    "coordinateStatus": "valid",
    "source": "臺北市公私立醫療院所－臺北市診所清冊"
  },
  {
    "id": "medical-clinic-25",
    "layer": "medical_facility",
    "facilityType": "clinic",
    "facilityName": "身新醫學診所",
    "medicalCategory": "診所",
    "address": "臺北市中正區連雲街87號5樓",
    "districtCode": "63000050",
    "cityCode": "63000",
    "district": "中正區",
    "longitude": 121.5301482,
    "latitude": 25.03407553,
    "coordinateStatus": "valid",
    "source": "臺北市公私立醫療院所－臺北市診所清冊"
  },
  {
    "id": "medical-clinic-26",
    "layer": "medical_facility",
    "facilityType": "clinic",
    "facilityName": "李明儒耳鼻喉科診所",
    "medicalCategory": "診所",
    "address": "臺北市中正區中華路二段341號",
    "districtCode": "63000050",
    "cityCode": "63000",
    "district": "中正區",
    "longitude": 121.5068426,
    "latitude": 25.02721822,
    "coordinateStatus": "valid",
    "source": "臺北市公私立醫療院所－臺北市診所清冊"
  },
  {
    "id": "medical-clinic-27",
    "layer": "medical_facility",
    "facilityType": "clinic",
    "facilityName": "古亭光澤診所",
    "medicalCategory": "診所",
    "address": "臺北市中正區羅斯福路2段116號、116號2樓、116號2樓之1",
    "districtCode": "63000050",
    "cityCode": "63000",
    "district": "中正區",
    "longitude": 121.5226827,
    "latitude": 25.0263914,
    "coordinateStatus": "valid",
    "source": "臺北市公私立醫療院所－臺北市診所清冊"
  },
  {
    "id": "medical-clinic-28",
    "layer": "medical_facility",
    "facilityType": "clinic",
    "facilityName": "目急國際診所",
    "medicalCategory": "診所",
    "address": "臺北市中正區武昌街一段77號6樓之17",
    "districtCode": "63000050",
    "cityCode": "63000",
    "district": "中正區",
    "longitude": 121.5095569,
    "latitude": 25.0442566,
    "coordinateStatus": "valid",
    "source": "臺北市公私立醫療院所－臺北市診所清冊"
  },
  {
    "id": "medical-clinic-29",
    "layer": "medical_facility",
    "facilityType": "clinic",
    "facilityName": "元泰診所",
    "medicalCategory": "診所",
    "address": "臺北市中正區羅斯福路3段2號2樓",
    "districtCode": "63000050",
    "cityCode": "63000",
    "district": "中正區",
    "longitude": 121.5248173,
    "latitude": 25.02353325,
    "coordinateStatus": "valid",
    "source": "臺北市公私立醫療院所－臺北市診所清冊"
  },
  {
    "id": "medical-clinic-30",
    "layer": "medical_facility",
    "facilityType": "clinic",
    "facilityName": "懷寧復健科診所",
    "medicalCategory": "診所",
    "address": "臺北市中正區懷寧街110號1樓、7樓",
    "districtCode": "63000050",
    "cityCode": "63000",
    "district": "中正區",
    "longitude": 121.5139321,
    "latitude": 25.04175139,
    "coordinateStatus": "valid",
    "source": "臺北市公私立醫療院所－臺北市診所清冊"
  },
  {
    "id": "medical-clinic-31",
    "layer": "medical_facility",
    "facilityType": "clinic",
    "facilityName": "美好健康診所",
    "medicalCategory": "診所",
    "address": "臺北市中正區連雲街83號(實際營業地址:1樓、2樓、3樓)",
    "districtCode": "63000050",
    "cityCode": "63000",
    "district": "中正區",
    "longitude": 121.530168,
    "latitude": 25.034192,
    "coordinateStatus": "valid",
    "source": "臺北市公私立醫療院所－臺北市診所清冊"
  },
  {
    "id": "medical-clinic-32",
    "layer": "medical_facility",
    "facilityType": "clinic",
    "facilityName": "大心古亭診所",
    "medicalCategory": "診所",
    "address": "臺北市中正區南昌路二段206號5樓之1",
    "districtCode": "63000050",
    "cityCode": "63000",
    "district": "中正區",
    "longitude": 121.5243096,
    "latitude": 25.0240366,
    "coordinateStatus": "valid",
    "source": "臺北市公私立醫療院所－臺北市診所清冊"
  },
  {
    "id": "medical-clinic-33",
    "layer": "medical_facility",
    "facilityType": "clinic",
    "facilityName": "博士診所",
    "medicalCategory": "診所",
    "address": "臺北市中正區南陽街8號地下1樓",
    "districtCode": "63000050",
    "cityCode": "63000",
    "district": "中正區",
    "longitude": 121.5159599,
    "latitude": 25.0452407,
    "coordinateStatus": "valid",
    "source": "臺北市公私立醫療院所－臺北市診所清冊"
  },
  {
    "id": "medical-clinic-34",
    "layer": "medical_facility",
    "facilityType": "clinic",
    "facilityName": "衡觀診所",
    "medicalCategory": "診所",
    "address": "臺北市中正區衡陽路20號6樓",
    "districtCode": "63000050",
    "cityCode": "63000",
    "district": "中正區",
    "longitude": 121.5129843,
    "latitude": 25.04221112,
    "coordinateStatus": "valid",
    "source": "臺北市公私立醫療院所－臺北市診所清冊"
  },
  {
    "id": "medical-clinic-35",
    "layer": "medical_facility",
    "facilityType": "clinic",
    "facilityName": "鈞安診所",
    "medicalCategory": "診所",
    "address": "臺北市中正區中華路2段431號1樓",
    "districtCode": "63000050",
    "cityCode": "63000",
    "district": "中正區",
    "longitude": 121.5090348,
    "latitude": 25.02527508,
    "coordinateStatus": "valid",
    "source": "臺北市公私立醫療院所－臺北市診所清冊"
  },
  {
    "id": "medical-clinic-36",
    "layer": "medical_facility",
    "facilityType": "clinic",
    "facilityName": "光澤晶漾診所",
    "medicalCategory": "診所",
    "address": "臺北市中正區館前路18號6樓",
    "districtCode": "63000050",
    "cityCode": "63000",
    "district": "中正區",
    "longitude": 121.5148937,
    "latitude": 25.04540268,
    "coordinateStatus": "valid",
    "source": "臺北市公私立醫療院所－臺北市診所清冊"
  },
  {
    "id": "medical-clinic-37",
    "layer": "medical_facility",
    "facilityType": "clinic",
    "facilityName": "台北諾貝爾眼科診所",
    "medicalCategory": "診所",
    "address": "臺北市中正區公園路13號5樓",
    "districtCode": "63000050",
    "cityCode": "63000",
    "district": "中正區",
    "longitude": 121.5174034,
    "latitude": 25.04548954,
    "coordinateStatus": "valid",
    "source": "臺北市公私立醫療院所－臺北市診所清冊"
  },
  {
    "id": "medical-clinic-38",
    "layer": "medical_facility",
    "facilityType": "clinic",
    "facilityName": "星和診所",
    "medicalCategory": "診所",
    "address": "臺北市中正區館前路2號6樓之1",
    "districtCode": "63000050",
    "cityCode": "63000",
    "district": "中正區",
    "longitude": 121.5148828,
    "latitude": 25.04636936,
    "coordinateStatus": "valid",
    "source": "臺北市公私立醫療院所－臺北市診所清冊"
  },
  {
    "id": "medical-clinic-39",
    "layer": "medical_facility",
    "facilityType": "clinic",
    "facilityName": "捷思身心醫學診所",
    "medicalCategory": "診所",
    "address": "臺北市中正區忠孝東路二段100號5樓之7",
    "districtCode": "63000050",
    "cityCode": "63000",
    "district": "中正區",
    "longitude": 121.5304539,
    "latitude": 25.04276981,
    "coordinateStatus": "valid",
    "source": "臺北市公私立醫療院所－臺北市診所清冊"
  },
  {
    "id": "medical-clinic-40",
    "layer": "medical_facility",
    "facilityType": "clinic",
    "facilityName": "臻健康診所",
    "medicalCategory": "診所",
    "address": "臺北市中正區中華路2段165之1號",
    "districtCode": "63000050",
    "cityCode": "63000",
    "district": "中正區",
    "longitude": 121.5042448,
    "latitude": 25.03078195,
    "coordinateStatus": "valid",
    "source": "臺北市公私立醫療院所－臺北市診所清冊"
  },
  {
    "id": "medical-clinic-41",
    "layer": "medical_facility",
    "facilityType": "clinic",
    "facilityName": "站前愛爾麗診所",
    "medicalCategory": "診所",
    "address": "臺北市中正區忠孝西路1段6號8樓",
    "districtCode": "63000050",
    "cityCode": "63000",
    "district": "中正區",
    "longitude": 121.5180284,
    "latitude": 25.04582575,
    "coordinateStatus": "valid",
    "source": "臺北市公私立醫療院所－臺北市診所清冊"
  },
  {
    "id": "medical-clinic-42",
    "layer": "medical_facility",
    "facilityType": "clinic",
    "facilityName": "佳飛雅醫美診所",
    "medicalCategory": "診所",
    "address": "臺北市中正區辛亥路1段49號(實際營業地址1層及2層)",
    "districtCode": "63000050",
    "cityCode": "63000",
    "district": "中正區",
    "longitude": 121.5286575,
    "latitude": 25.01974206,
    "coordinateStatus": "valid",
    "source": "臺北市公私立醫療院所－臺北市診所清冊"
  },
  {
    "id": "medical-clinic-43",
    "layer": "medical_facility",
    "facilityType": "clinic",
    "facilityName": "永愉診所",
    "medicalCategory": "診所",
    "address": "臺北市中正區忠孝東路1段54號3樓",
    "districtCode": "63000050",
    "cityCode": "63000",
    "district": "中正區",
    "longitude": 121.5230401,
    "latitude": 25.04467171,
    "coordinateStatus": "valid",
    "source": "臺北市公私立醫療院所－臺北市診所清冊"
  },
  {
    "id": "medical-clinic-44",
    "layer": "medical_facility",
    "facilityType": "clinic",
    "facilityName": "站前聖宜診所",
    "medicalCategory": "診所",
    "address": "臺北市中正區許昌街42號(7樓)",
    "districtCode": "63000050",
    "cityCode": "63000",
    "district": "中正區",
    "longitude": 121.5154761,
    "latitude": 25.0454268,
    "coordinateStatus": "valid",
    "source": "臺北市公私立醫療院所－臺北市診所清冊"
  },
  {
    "id": "medical-clinic-45",
    "layer": "medical_facility",
    "facilityType": "clinic",
    "facilityName": "久瑞復健科診所",
    "medicalCategory": "診所",
    "address": "臺北市中正區仁愛路2段21號、21之1號、23號",
    "districtCode": "63000050",
    "cityCode": "63000",
    "district": "中正區",
    "longitude": 121.5271078,
    "latitude": 25.03846167,
    "coordinateStatus": "valid",
    "source": "臺北市公私立醫療院所－臺北市診所清冊"
  },
  {
    "id": "medical-clinic-46",
    "layer": "medical_facility",
    "facilityType": "clinic",
    "facilityName": "超全能診所",
    "medicalCategory": "診所",
    "address": "臺北市中正區忠孝東路2段136號1樓",
    "districtCode": "63000050",
    "cityCode": "63000",
    "district": "中正區",
    "longitude": 121.5319338,
    "latitude": 25.0416416,
    "coordinateStatus": "valid",
    "source": "臺北市公私立醫療院所－臺北市診所清冊"
  },
  {
    "id": "medical-clinic-47",
    "layer": "medical_facility",
    "facilityType": "clinic",
    "facilityName": "好甘心診所",
    "medicalCategory": "診所",
    "address": "臺北市中正區公園路30號9樓之1、9樓之2、11樓之1、11樓之2、11樓之3",
    "districtCode": "63000050",
    "cityCode": "63000",
    "district": "中正區",
    "longitude": 121.5168566,
    "latitude": 25.0444824,
    "coordinateStatus": "valid",
    "source": "臺北市公私立醫療院所－臺北市診所清冊"
  },
  {
    "id": "medical-clinic-48",
    "layer": "medical_facility",
    "facilityType": "clinic",
    "facilityName": "古亭適康復健科診所",
    "medicalCategory": "診所",
    "address": "臺北市中正區南昌路2段196號(1樓)、200號地下1樓、200號1樓、200號2樓",
    "districtCode": "63000050",
    "cityCode": "63000",
    "district": "中正區",
    "longitude": 121.524062,
    "latitude": 25.0242666,
    "coordinateStatus": "valid",
    "source": "臺北市公私立醫療院所－臺北市診所清冊"
  },
  {
    "id": "medical-clinic-49",
    "layer": "medical_facility",
    "facilityType": "clinic",
    "facilityName": "美渥館診所",
    "medicalCategory": "診所",
    "address": "臺北市中正區博愛路224巷5號6樓",
    "districtCode": "63000050",
    "cityCode": "63000",
    "district": "中正區",
    "longitude": 121.5098896,
    "latitude": 25.03402781,
    "coordinateStatus": "valid",
    "source": "臺北市公私立醫療院所－臺北市診所清冊"
  },
  {
    "id": "medical-clinic-50",
    "layer": "medical_facility",
    "facilityType": "clinic",
    "facilityName": "蒂恩美學診所",
    "medicalCategory": "診所",
    "address": "臺北市中正區新生南路1段128號4樓",
    "districtCode": "63000050",
    "cityCode": "63000",
    "district": "中正區",
    "longitude": 121.5324999,
    "latitude": 25.0369907,
    "coordinateStatus": "valid",
    "source": "臺北市公私立醫療院所－臺北市診所清冊"
  },
  {
    "id": "medical-clinic-51",
    "layer": "medical_facility",
    "facilityType": "clinic",
    "facilityName": "銘人診所",
    "medicalCategory": "診所",
    "address": "臺北市中正區博愛路9號3樓",
    "districtCode": "63000050",
    "cityCode": "63000",
    "district": "中正區",
    "longitude": 121.5115032,
    "latitude": 25.04591542,
    "coordinateStatus": "valid",
    "source": "臺北市公私立醫療院所－臺北市診所清冊"
  },
  {
    "id": "medical-clinic-52",
    "layer": "medical_facility",
    "facilityType": "clinic",
    "facilityName": "立達診所",
    "medicalCategory": "診所",
    "address": "臺北市中正區忠孝東路1段54號1樓、54之1號(1樓)、54之2號(1樓)、54號2樓、54號3樓",
    "districtCode": "63000050",
    "cityCode": "63000",
    "district": "中正區",
    "longitude": 121.5230401,
    "latitude": 25.04467171,
    "coordinateStatus": "valid",
    "source": "臺北市公私立醫療院所－臺北市診所清冊"
  },
  {
    "id": "medical-clinic-53",
    "layer": "medical_facility",
    "facilityType": "clinic",
    "facilityName": "力安妥診所",
    "medicalCategory": "診所",
    "address": "臺北市中正區衡陽路30號(2樓)",
    "districtCode": "63000050",
    "cityCode": "63000",
    "district": "中正區",
    "longitude": 121.512712,
    "latitude": 25.0421719,
    "coordinateStatus": "valid",
    "source": "臺北市公私立醫療院所－臺北市診所清冊"
  },
  {
    "id": "medical-clinic-54",
    "layer": "medical_facility",
    "facilityType": "clinic",
    "facilityName": "站前美力時尚診所",
    "medicalCategory": "診所",
    "address": "臺北市中正區館前路20號4樓、11樓",
    "districtCode": "63000050",
    "cityCode": "63000",
    "district": "中正區",
    "longitude": 121.514903,
    "latitude": 25.04526952,
    "coordinateStatus": "valid",
    "source": "臺北市公私立醫療院所－臺北市診所清冊"
  },
  {
    "id": "medical-clinic-55",
    "layer": "medical_facility",
    "facilityType": "clinic",
    "facilityName": "君綺美麗診所",
    "medicalCategory": "診所",
    "address": "臺北市中正區忠孝西路1段6號13樓",
    "districtCode": "63000050",
    "cityCode": "63000",
    "district": "中正區",
    "longitude": 121.5180284,
    "latitude": 25.04582575,
    "coordinateStatus": "valid",
    "source": "臺北市公私立醫療院所－臺北市診所清冊"
  },
  {
    "id": "medical-clinic-56",
    "layer": "medical_facility",
    "facilityType": "clinic",
    "facilityName": "古亭復健診所",
    "medicalCategory": "診所",
    "address": "臺北市中正區羅斯福路3段160號1樓、162號(1、2樓)",
    "districtCode": "63000050",
    "cityCode": "63000",
    "district": "中正區",
    "longitude": 121.5286507,
    "latitude": 25.01999529,
    "coordinateStatus": "valid",
    "source": "臺北市公私立醫療院所－臺北市診所清冊"
  },
  {
    "id": "medical-clinic-57",
    "layer": "medical_facility",
    "facilityType": "clinic",
    "facilityName": "幫痘氏公館皮膚科診所",
    "medicalCategory": "診所",
    "address": "臺北市中正區羅斯福路3段308號1、2、3樓",
    "districtCode": "63000050",
    "cityCode": "63000",
    "district": "中正區",
    "longitude": 121.5325259,
    "latitude": 25.0161649,
    "coordinateStatus": "valid",
    "source": "臺北市公私立醫療院所－臺北市診所清冊"
  },
  {
    "id": "medical-clinic-58",
    "layer": "medical_facility",
    "facilityType": "clinic",
    "facilityName": "安妞美學診所",
    "medicalCategory": "診所",
    "address": "臺北市中正區羅斯福路1段133號2樓",
    "districtCode": "63000050",
    "cityCode": "63000",
    "district": "中正區",
    "longitude": 121.5204699,
    "latitude": 25.03008327,
    "coordinateStatus": "valid",
    "source": "臺北市公私立醫療院所－臺北市診所清冊"
  },
  {
    "id": "medical-clinic-59",
    "layer": "medical_facility",
    "facilityType": "clinic",
    "facilityName": "千美診所",
    "medicalCategory": "診所",
    "address": "臺北市中正區新生南路1段60號3樓",
    "districtCode": "63000050",
    "cityCode": "63000",
    "district": "中正區",
    "longitude": 121.5325607,
    "latitude": 25.04074003,
    "coordinateStatus": "valid",
    "source": "臺北市公私立醫療院所－臺北市診所清冊"
  },
  {
    "id": "medical-clinic-60",
    "layer": "medical_facility",
    "facilityType": "clinic",
    "facilityName": "薇璽美學診所",
    "medicalCategory": "診所",
    "address": "臺北市中正區忠孝東路1段13號7樓",
    "districtCode": "63000050",
    "cityCode": "63000",
    "district": "中正區",
    "longitude": 121.5240563,
    "latitude": 25.04484061,
    "coordinateStatus": "valid",
    "source": "臺北市公私立醫療院所－臺北市診所清冊"
  },
  {
    "id": "medical-clinic-61",
    "layer": "medical_facility",
    "facilityType": "clinic",
    "facilityName": "禾瑞印象診所",
    "medicalCategory": "診所",
    "address": "臺北市中正區信義路2段213號5樓",
    "districtCode": "63000050",
    "cityCode": "63000",
    "district": "中正區",
    "longitude": 121.5305375,
    "latitude": 25.03384548,
    "coordinateStatus": "valid",
    "source": "臺北市公私立醫療院所－臺北市診所清冊"
  },
  {
    "id": "medical-clinic-62",
    "layer": "medical_facility",
    "facilityType": "clinic",
    "facilityName": "韓娜斯時尚美醫診所",
    "medicalCategory": "診所",
    "address": "臺北市中正區博愛路83號2樓、85號2樓",
    "districtCode": "63000050",
    "cityCode": "63000",
    "district": "中正區",
    "longitude": 121.5116118,
    "latitude": 25.04343958,
    "coordinateStatus": "valid",
    "source": "臺北市公私立醫療院所－臺北市診所清冊"
  },
  {
    "id": "medical-clinic-63",
    "layer": "medical_facility",
    "facilityType": "clinic",
    "facilityName": "海漾大健康管理診所",
    "medicalCategory": "診所",
    "address": "臺北市中正區水源路77號7樓之1",
    "districtCode": "63000050",
    "cityCode": "63000",
    "district": "中正區",
    "longitude": 121.5200264,
    "latitude": 25.02103508,
    "coordinateStatus": "valid",
    "source": "臺北市公私立醫療院所－臺北市診所清冊"
  },
  {
    "id": "medical-clinic-64",
    "layer": "medical_facility",
    "facilityType": "clinic",
    "facilityName": "晶翎美學診所",
    "medicalCategory": "診所",
    "address": "臺北市中正區仁愛路2段70號1、2樓、72號(1樓)",
    "districtCode": "63000050",
    "cityCode": "63000",
    "district": "中正區",
    "longitude": 121.5295409,
    "latitude": 25.0380061,
    "coordinateStatus": "valid",
    "source": "臺北市公私立醫療院所－臺北市診所清冊"
  },
  {
    "id": "medical-clinic-65",
    "layer": "medical_facility",
    "facilityType": "clinic",
    "facilityName": "台北澄清眼科診所",
    "medicalCategory": "診所",
    "address": "臺北市中正區忠孝西路1段80號3樓",
    "districtCode": "63000050",
    "cityCode": "63000",
    "district": "中正區",
    "longitude": 121.5137663,
    "latitude": 25.04686551,
    "coordinateStatus": "valid",
    "source": "臺北市公私立醫療院所－臺北市診所清冊"
  },
  {
    "id": "medical-clinic-66",
    "layer": "medical_facility",
    "facilityType": "clinic",
    "facilityName": "慢活靜心診所",
    "medicalCategory": "診所",
    "address": "臺北市中正區博愛路105號3樓",
    "districtCode": "63000050",
    "cityCode": "63000",
    "district": "中正區",
    "longitude": 121.5116051,
    "latitude": 25.042701,
    "coordinateStatus": "valid",
    "source": "臺北市公私立醫療院所－臺北市診所清冊"
  },
  {
    "id": "medical-clinic-67",
    "layer": "medical_facility",
    "facilityType": "clinic",
    "facilityName": "珍顏唯上診所",
    "medicalCategory": "診所",
    "address": "臺北市中正區館前路2號6樓",
    "districtCode": "63000050",
    "cityCode": "63000",
    "district": "中正區",
    "longitude": 121.5148828,
    "latitude": 25.04636936,
    "coordinateStatus": "valid",
    "source": "臺北市公私立醫療院所－臺北市診所清冊"
  },
  {
    "id": "medical-clinic-68",
    "layer": "medical_facility",
    "facilityType": "clinic",
    "facilityName": "濰視眼科診所",
    "medicalCategory": "診所",
    "address": "臺北市中正區館前路43號(2樓)",
    "districtCode": "63000050",
    "cityCode": "63000",
    "district": "中正區",
    "longitude": 121.5151274,
    "latitude": 25.0453997,
    "coordinateStatus": "valid",
    "source": "臺北市公私立醫療院所－臺北市診所清冊"
  },
  {
    "id": "medical-clinic-69",
    "layer": "medical_facility",
    "facilityType": "clinic",
    "facilityName": "醫健診所",
    "medicalCategory": "診所",
    "address": "臺北市中正區新生南路1段56號8樓",
    "districtCode": "63000050",
    "cityCode": "63000",
    "district": "中正區",
    "longitude": 121.5325038,
    "latitude": 25.04119529,
    "coordinateStatus": "valid",
    "source": "臺北市公私立醫療院所－臺北市診所清冊"
  },
  {
    "id": "medical-clinic-70",
    "layer": "medical_facility",
    "facilityType": "clinic",
    "facilityName": "臺北市立聯合醫院附設中正門診部",
    "medicalCategory": "診所",
    "address": "臺北市中正區牯嶺街24號",
    "districtCode": "63000050",
    "cityCode": "63000",
    "district": "中正區",
    "longitude": 121.5159522,
    "latitude": 25.03049364,
    "coordinateStatus": "valid",
    "source": "臺北市公私立醫療院所－臺北市診所清冊"
  },
  {
    "id": "medical-clinic-71",
    "layer": "medical_facility",
    "facilityType": "clinic",
    "facilityName": "國軍台北門診中心附設民眾診療服務處",
    "medicalCategory": "診所",
    "address": "臺北市中正區紹興南街7號",
    "districtCode": "63000050",
    "cityCode": "63000",
    "district": "中正區",
    "longitude": 121.5239982,
    "latitude": 25.04012267,
    "coordinateStatus": "valid",
    "source": "臺北市公私立醫療院所－臺北市診所清冊"
  },
  {
    "id": "medical-clinic-72",
    "layer": "medical_facility",
    "facilityType": "clinic",
    "facilityName": "外交部醫務室",
    "medicalCategory": "診所",
    "address": "臺北市中正區凱達格蘭大道2號",
    "districtCode": "63000050",
    "cityCode": "63000",
    "district": "中正區",
    "longitude": 121.5163423,
    "latitude": 25.03895229,
    "coordinateStatus": "valid",
    "source": "臺北市公私立醫療院所－臺北市診所清冊"
  },
  {
    "id": "medical-clinic-73",
    "layer": "medical_facility",
    "facilityType": "clinic",
    "facilityName": "衛生福利部疾病管制署健康中心",
    "medicalCategory": "診所",
    "address": "臺北市中正區林森南路6號1樓",
    "districtCode": "63000050",
    "cityCode": "63000",
    "district": "中正區",
    "longitude": 121.5227569,
    "latitude": 25.04329771,
    "coordinateStatus": "valid",
    "source": "臺北市公私立醫療院所－臺北市診所清冊"
  },
  {
    "id": "medical-clinic-74",
    "layer": "medical_facility",
    "facilityType": "clinic",
    "facilityName": "中央銀行秘書處醫務室",
    "medicalCategory": "診所",
    "address": "臺北市中正區羅斯福路一段2號(實際營業地址:第二大樓2樓)",
    "districtCode": "63000050",
    "cityCode": "63000",
    "district": "中正區",
    "longitude": 121.516894,
    "latitude": 25.0340418,
    "coordinateStatus": "valid",
    "source": "臺北市公私立醫療院所－臺北市診所清冊"
  },
  {
    "id": "medical-clinic-75",
    "layer": "medical_facility",
    "facilityType": "clinic",
    "facilityName": "敦智內科診所",
    "medicalCategory": "診所",
    "address": "臺北市中正區懷寧街１９號",
    "districtCode": "63000050",
    "cityCode": "63000",
    "district": "中正區",
    "longitude": 121.5142485,
    "latitude": 25.04543617,
    "coordinateStatus": "valid",
    "source": "臺北市公私立醫療院所－臺北市診所清冊"
  },
  {
    "id": "medical-clinic-76",
    "layer": "medical_facility",
    "facilityType": "clinic",
    "facilityName": "吉星診所",
    "medicalCategory": "診所",
    "address": "臺北市中正區青島東路４－５號１樓",
    "districtCode": "63000050",
    "cityCode": "63000",
    "district": "中正區",
    "longitude": 121.5216651,
    "latitude": 25.04384249,
    "coordinateStatus": "valid",
    "source": "臺北市公私立醫療院所－臺北市診所清冊"
  },
  {
    "id": "medical-clinic-77",
    "layer": "medical_facility",
    "facilityType": "clinic",
    "facilityName": "劉瑞聰診所",
    "medicalCategory": "診所",
    "address": "臺北市中正區汀州路一段１９４號",
    "districtCode": "63000050",
    "cityCode": "63000",
    "district": "中正區",
    "longitude": 121.5091803,
    "latitude": 25.02812026,
    "coordinateStatus": "valid",
    "source": "臺北市公私立醫療院所－臺北市診所清冊"
  },
  {
    "id": "medical-clinic-78",
    "layer": "medical_facility",
    "facilityType": "clinic",
    "facilityName": "孫睿亮診所",
    "medicalCategory": "診所",
    "address": "臺北市中正區金山南路一段１２１號",
    "districtCode": "63000050",
    "cityCode": "63000",
    "district": "中正區",
    "longitude": 121.5278505,
    "latitude": 25.03605999,
    "coordinateStatus": "valid",
    "source": "臺北市公私立醫療院所－臺北市診所清冊"
  },
  {
    "id": "medical-clinic-79",
    "layer": "medical_facility",
    "facilityType": "clinic",
    "facilityName": "鄭文宗耳鼻喉科診所",
    "medicalCategory": "診所",
    "address": "臺北市中正區信義路二段２６７號",
    "districtCode": "63000050",
    "cityCode": "63000",
    "district": "中正區",
    "longitude": 121.5318328,
    "latitude": 25.03381158,
    "coordinateStatus": "valid",
    "source": "臺北市公私立醫療院所－臺北市診所清冊"
  },
  {
    "id": "medical-clinic-80",
    "layer": "medical_facility",
    "facilityType": "clinic",
    "facilityName": "古亭中心耳鼻喉科診所",
    "medicalCategory": "診所",
    "address": "臺北市中正區中華路二段１６１號",
    "districtCode": "63000050",
    "cityCode": "63000",
    "district": "中正區",
    "longitude": 121.5042507,
    "latitude": 25.03097603,
    "coordinateStatus": "valid",
    "source": "臺北市公私立醫療院所－臺北市診所清冊"
  },
  {
    "id": "medical-clinic-81",
    "layer": "medical_facility",
    "facilityType": "clinic",
    "facilityName": "林診所",
    "medicalCategory": "診所",
    "address": "臺北市中正區寧波東街２２號",
    "districtCode": "63000050",
    "cityCode": "63000",
    "district": "中正區",
    "longitude": 121.5202927,
    "latitude": 25.03281714,
    "coordinateStatus": "valid",
    "source": "臺北市公私立醫療院所－臺北市診所清冊"
  },
  {
    "id": "medical-clinic-82",
    "layer": "medical_facility",
    "facilityType": "clinic",
    "facilityName": "朱小兒科診所",
    "medicalCategory": "診所",
    "address": "臺北市中正區汀州路二段２２０號１樓",
    "districtCode": "63000050",
    "cityCode": "63000",
    "district": "中正區",
    "longitude": 121.5240029,
    "latitude": 25.0221175,
    "coordinateStatus": "valid",
    "source": "臺北市公私立醫療院所－臺北市診所清冊"
  },
  {
    "id": "medical-clinic-83",
    "layer": "medical_facility",
    "facilityType": "clinic",
    "facilityName": "雙合耳鼻喉科聯合診所",
    "medicalCategory": "診所",
    "address": "臺北市中正區汀州路一段96號",
    "districtCode": "63000050",
    "cityCode": "63000",
    "district": "中正區",
    "longitude": 121.5074467,
    "latitude": 25.03024021,
    "coordinateStatus": "valid",
    "source": "臺北市公私立醫療院所－臺北市診所清冊"
  },
  {
    "id": "medical-clinic-84",
    "layer": "medical_facility",
    "facilityType": "clinic",
    "facilityName": "張孟源內科診所",
    "medicalCategory": "診所",
    "address": "臺北市中正區中華路二段３２５號",
    "districtCode": "63000050",
    "cityCode": "63000",
    "district": "中正區",
    "longitude": 121.5064406,
    "latitude": 25.0276502,
    "coordinateStatus": "valid",
    "source": "臺北市公私立醫療院所－臺北市診所清冊"
  },
  {
    "id": "medical-clinic-85",
    "layer": "medical_facility",
    "facilityType": "clinic",
    "facilityName": "周正成小兒科診所",
    "medicalCategory": "診所",
    "address": "臺北市中正區徐州路24號",
    "districtCode": "63000050",
    "cityCode": "63000",
    "district": "中正區",
    "longitude": 121.5233565,
    "latitude": 25.04062499,
    "coordinateStatus": "valid",
    "source": "臺北市公私立醫療院所－臺北市診所清冊"
  },
  {
    "id": "medical-clinic-86",
    "layer": "medical_facility",
    "facilityType": "clinic",
    "facilityName": "丞泰耳鼻喉科診所",
    "medicalCategory": "診所",
    "address": "臺北市中正區南昌路一段７８號",
    "districtCode": "63000050",
    "cityCode": "63000",
    "district": "中正區",
    "longitude": 121.5172724,
    "latitude": 25.0309959,
    "coordinateStatus": "valid",
    "source": "臺北市公私立醫療院所－臺北市診所清冊"
  },
  {
    "id": "medical-clinic-87",
    "layer": "medical_facility",
    "facilityType": "clinic",
    "facilityName": "蕭耳鼻喉科診所",
    "medicalCategory": "診所",
    "address": "臺北市中正區汀州路二段二六一號",
    "districtCode": "63000050",
    "cityCode": "63000",
    "district": "中正區",
    "longitude": 121.523485,
    "latitude": 25.02281464,
    "coordinateStatus": "valid",
    "source": "臺北市公私立醫療院所－臺北市診所清冊"
  },
  {
    "id": "medical-clinic-88",
    "layer": "medical_facility",
    "facilityType": "clinic",
    "facilityName": "彭內科診所",
    "medicalCategory": "診所",
    "address": "臺北市中正區廈門街35號",
    "districtCode": "63000050",
    "cityCode": "63000",
    "district": "中正區",
    "longitude": 121.5177857,
    "latitude": 25.0261185,
    "coordinateStatus": "valid",
    "source": "臺北市公私立醫療院所－臺北市診所清冊"
  },
  {
    "id": "medical-clinic-89",
    "layer": "medical_facility",
    "facilityType": "clinic",
    "facilityName": "車參聖整形外科診所",
    "medicalCategory": "診所",
    "address": "臺北市中正區重慶南路1段13號5樓、6樓",
    "districtCode": "63000050",
    "cityCode": "63000",
    "district": "中正區",
    "longitude": 121.5133719,
    "latitude": 25.04610266,
    "coordinateStatus": "valid",
    "source": "臺北市公私立醫療院所－臺北市診所清冊"
  },
  {
    "id": "medical-clinic-90",
    "layer": "medical_facility",
    "facilityType": "clinic",
    "facilityName": "池振坤耳鼻喉科診所",
    "medicalCategory": "診所",
    "address": "臺北市中正區南昌路一段88號2樓之1",
    "districtCode": "63000050",
    "cityCode": "63000",
    "district": "中正區",
    "longitude": 121.5174145,
    "latitude": 25.03080539,
    "coordinateStatus": "valid",
    "source": "臺北市公私立醫療院所－臺北市診所清冊"
  },
  {
    "id": "medical-clinic-91",
    "layer": "medical_facility",
    "facilityType": "clinic",
    "facilityName": "劉家庭醫學科診所",
    "medicalCategory": "診所",
    "address": "臺北市中正區杭州南路一段一四五號一、二樓",
    "districtCode": "63000050",
    "cityCode": "63000",
    "district": "中正區",
    "longitude": 121.5255215,
    "latitude": 25.0396026,
    "coordinateStatus": "valid",
    "source": "臺北市公私立醫療院所－臺北市診所清冊"
  },
  {
    "id": "medical-clinic-92",
    "layer": "medical_facility",
    "facilityType": "clinic",
    "facilityName": "柯滄銘婦產科診所",
    "medicalCategory": "診所",
    "address": "臺北市中正區林森南路10號、10之1號、10號2樓、12號2樓、10號4樓、10號4樓之2",
    "districtCode": "63000050",
    "cityCode": "63000",
    "district": "中正區",
    "longitude": 121.5226073,
    "latitude": 25.0429136,
    "coordinateStatus": "valid",
    "source": "臺北市公私立醫療院所－臺北市診所清冊"
  },
  {
    "id": "medical-clinic-93",
    "layer": "medical_facility",
    "facilityType": "clinic",
    "facilityName": "蕙瑛婦產科診所",
    "medicalCategory": "診所",
    "address": "臺北市中正區忠孝西路一段五十號二十四樓之二十四",
    "districtCode": "63000050",
    "cityCode": "63000",
    "district": "中正區",
    "longitude": 121.515823,
    "latitude": 25.04630433,
    "coordinateStatus": "valid",
    "source": "臺北市公私立醫療院所－臺北市診所清冊"
  },
  {
    "id": "medical-clinic-94",
    "layer": "medical_facility",
    "facilityType": "clinic",
    "facilityName": "林超群眼科診所",
    "medicalCategory": "診所",
    "address": "臺北市中正區重慶南路一段143號2樓",
    "districtCode": "63000050",
    "cityCode": "63000",
    "district": "中正區",
    "longitude": 121.5132293,
    "latitude": 25.04157054,
    "coordinateStatus": "valid",
    "source": "臺北市公私立醫療院所－臺北市診所清冊"
  },
  {
    "id": "medical-clinic-95",
    "layer": "medical_facility",
    "facilityType": "clinic",
    "facilityName": "紹毅內兒科診所",
    "medicalCategory": "診所",
    "address": "臺北市中正區八德路1段50號1樓、50 號2樓、52號(1樓)、52之1號(2樓)",
    "districtCode": "63000050",
    "cityCode": "63000",
    "district": "中正區",
    "longitude": 121.5310059,
    "latitude": 25.04379986,
    "coordinateStatus": "valid",
    "source": "臺北市公私立醫療院所－臺北市診所清冊"
  },
  {
    "id": "medical-clinic-96",
    "layer": "medical_facility",
    "facilityType": "clinic",
    "facilityName": "羅綺皮膚科診所",
    "medicalCategory": "診所",
    "address": "臺北市中正區濟南路一段7號4樓",
    "districtCode": "63000050",
    "cityCode": "63000",
    "district": "中正區",
    "longitude": 121.521933,
    "latitude": 25.0427145,
    "coordinateStatus": "valid",
    "source": "臺北市公私立醫療院所－臺北市診所清冊"
  },
  {
    "id": "medical-clinic-97",
    "layer": "medical_facility",
    "facilityType": "clinic",
    "facilityName": "戰痘診所",
    "medicalCategory": "診所",
    "address": "臺北市中正區襄陽路17號(1樓)",
    "districtCode": "63000050",
    "cityCode": "63000",
    "district": "中正區",
    "longitude": 121.5154426,
    "latitude": 25.0435416,
    "coordinateStatus": "valid",
    "source": "臺北市公私立醫療院所－臺北市診所清冊"
  },
  {
    "id": "medical-clinic-98",
    "layer": "medical_facility",
    "facilityType": "clinic",
    "facilityName": "同泰診所",
    "medicalCategory": "診所",
    "address": "臺北市中正區汀州路二段一三六號、一三八號",
    "districtCode": "63000050",
    "cityCode": "63000",
    "district": "中正區",
    "longitude": 121.5208735,
    "latitude": 25.0244653,
    "coordinateStatus": "valid",
    "source": "臺北市公私立醫療院所－臺北市診所清冊"
  },
  {
    "id": "medical-clinic-99",
    "layer": "medical_facility",
    "facilityType": "clinic",
    "facilityName": "親子診所",
    "medicalCategory": "診所",
    "address": "臺北市中正區和平西路二段５０號",
    "districtCode": "63000050",
    "cityCode": "63000",
    "district": "中正區",
    "longitude": 121.5124433,
    "latitude": 25.0286311,
    "coordinateStatus": "valid",
    "source": "臺北市公私立醫療院所－臺北市診所清冊"
  },
  {
    "id": "medical-clinic-100",
    "layer": "medical_facility",
    "facilityType": "clinic",
    "facilityName": "惠恩診所",
    "medicalCategory": "診所",
    "address": "臺北市中正區濟南路二段四十八巷三至二號",
    "districtCode": "63000050",
    "cityCode": "63000",
    "district": "中正區",
    "longitude": 121.5292547,
    "latitude": 25.0408252,
    "coordinateStatus": "valid",
    "source": "臺北市公私立醫療院所－臺北市診所清冊"
  },
  {
    "id": "medical-clinic-101",
    "layer": "medical_facility",
    "facilityType": "clinic",
    "facilityName": "李相台診所",
    "medicalCategory": "診所",
    "address": "臺北市中正區新生南路一段１４８號２樓之１",
    "districtCode": "63000050",
    "cityCode": "63000",
    "district": "中正區",
    "longitude": 121.532466,
    "latitude": 25.03527506,
    "coordinateStatus": "valid",
    "source": "臺北市公私立醫療院所－臺北市診所清冊"
  },
  {
    "id": "medical-clinic-102",
    "layer": "medical_facility",
    "facilityType": "clinic",
    "facilityName": "長虹診所",
    "medicalCategory": "診所",
    "address": "臺北市中正區公園路十三號一、二、四樓，地下一樓",
    "districtCode": "63000050",
    "cityCode": "63000",
    "district": "中正區",
    "longitude": 121.5160001,
    "latitude": 25.0412685,
    "coordinateStatus": "valid",
    "source": "臺北市公私立醫療院所－臺北市診所清冊"
  },
  {
    "id": "medical-clinic-103",
    "layer": "medical_facility",
    "facilityType": "clinic",
    "facilityName": "蔡明勳診所",
    "medicalCategory": "診所",
    "address": "臺北市中正區羅斯福路二段４０號１樓",
    "districtCode": "63000050",
    "cityCode": "63000",
    "district": "中正區",
    "longitude": 121.521454,
    "latitude": 25.02804945,
    "coordinateStatus": "valid",
    "source": "臺北市公私立醫療院所－臺北市診所清冊"
  },
  {
    "id": "medical-clinic-104",
    "layer": "medical_facility",
    "facilityType": "clinic",
    "facilityName": "拉菲爾人本診所",
    "medicalCategory": "診所",
    "address": "臺北市中正區館前路49號11樓",
    "districtCode": "63000050",
    "cityCode": "63000",
    "district": "中正區",
    "longitude": 121.5151238,
    "latitude": 25.04496242,
    "coordinateStatus": "valid",
    "source": "臺北市公私立醫療院所－臺北市診所清冊"
  },
  {
    "id": "medical-clinic-105",
    "layer": "medical_facility",
    "facilityType": "clinic",
    "facilityName": "怡和診所",
    "medicalCategory": "診所",
    "address": "臺北市中正區汀州路二段二一二號",
    "districtCode": "63000050",
    "cityCode": "63000",
    "district": "中正區",
    "longitude": 121.5237191,
    "latitude": 25.02236086,
    "coordinateStatus": "valid",
    "source": "臺北市公私立醫療院所－臺北市診所清冊"
  },
  {
    "id": "medical-clinic-106",
    "layer": "medical_facility",
    "facilityType": "clinic",
    "facilityName": "奕康耳鼻喉科診所",
    "medicalCategory": "診所",
    "address": "臺北市中正區連雲街72號2樓",
    "districtCode": "63000050",
    "cityCode": "63000",
    "district": "中正區",
    "longitude": 121.5299712,
    "latitude": 25.03454651,
    "coordinateStatus": "valid",
    "source": "臺北市公私立醫療院所－臺北市診所清冊"
  },
  {
    "id": "medical-clinic-107",
    "layer": "medical_facility",
    "facilityType": "clinic",
    "facilityName": "李世輝耳鼻喉科診所",
    "medicalCategory": "診所",
    "address": "臺北市中正區南昌路一段79號",
    "districtCode": "63000050",
    "cityCode": "63000",
    "district": "中正區",
    "longitude": 121.5177813,
    "latitude": 25.03061544,
    "coordinateStatus": "valid",
    "source": "臺北市公私立醫療院所－臺北市診所清冊"
  },
  {
    "id": "medical-clinic-108",
    "layer": "medical_facility",
    "facilityType": "clinic",
    "facilityName": "東京風采整形外科診所",
    "medicalCategory": "診所",
    "address": "臺北市中正區仁愛路二段48號7樓",
    "districtCode": "63000050",
    "cityCode": "63000",
    "district": "中正區",
    "longitude": 121.5280471,
    "latitude": 25.03802494,
    "coordinateStatus": "valid",
    "source": "臺北市公私立醫療院所－臺北市診所清冊"
  },
  {
    "id": "medical-clinic-109",
    "layer": "medical_facility",
    "facilityType": "clinic",
    "facilityName": "健康101診所",
    "medicalCategory": "診所",
    "address": "臺北市中正區牯嶺街97號1樓",
    "districtCode": "63000050",
    "cityCode": "63000",
    "district": "中正區",
    "longitude": 121.519083,
    "latitude": 25.02591453,
    "coordinateStatus": "valid",
    "source": "臺北市公私立醫療院所－臺北市診所清冊"
  },
  {
    "id": "medical-clinic-110",
    "layer": "medical_facility",
    "facilityType": "clinic",
    "facilityName": "站前大學眼科診所",
    "medicalCategory": "診所",
    "address": "臺北市中正區館前路8號3樓",
    "districtCode": "63000050",
    "cityCode": "63000",
    "district": "中正區",
    "longitude": 121.5148954,
    "latitude": 25.04581397,
    "coordinateStatus": "valid",
    "source": "臺北市公私立醫療院所－臺北市診所清冊"
  },
  {
    "id": "medical-clinic-111",
    "layer": "medical_facility",
    "facilityType": "clinic",
    "facilityName": "美學院整形外科診所",
    "medicalCategory": "診所",
    "address": "臺北市中正區羅斯福路三段312號7樓",
    "districtCode": "63000050",
    "cityCode": "63000",
    "district": "中正區",
    "longitude": 121.53263,
    "latitude": 25.01609714,
    "coordinateStatus": "valid",
    "source": "臺北市公私立醫療院所－臺北市診所清冊"
  },
  {
    "id": "medical-clinic-112",
    "layer": "medical_facility",
    "facilityType": "clinic",
    "facilityName": "新生活診所",
    "medicalCategory": "診所",
    "address": "臺北市中正區新生南路一段140號2樓",
    "districtCode": "63000050",
    "cityCode": "63000",
    "district": "中正區",
    "longitude": 121.5324852,
    "latitude": 25.03604425,
    "coordinateStatus": "valid",
    "source": "臺北市公私立醫療院所－臺北市診所清冊"
  },
  {
    "id": "medical-clinic-113",
    "layer": "medical_facility",
    "facilityType": "clinic",
    "facilityName": "風華整形外科診所",
    "medicalCategory": "診所",
    "address": "臺北市中正區忠孝西路1段6號2、3樓",
    "districtCode": "63000050",
    "cityCode": "63000",
    "district": "中正區",
    "longitude": 121.5198716,
    "latitude": 25.0421407,
    "coordinateStatus": "valid",
    "source": "臺北市公私立醫療院所－臺北市診所清冊"
  },
  {
    "id": "medical-clinic-114",
    "layer": "medical_facility",
    "facilityType": "clinic",
    "facilityName": "新公園診所",
    "medicalCategory": "診所",
    "address": "臺北市中正區襄陽路3號3樓",
    "districtCode": "63000050",
    "cityCode": "63000",
    "district": "中正區",
    "longitude": 121.5161388,
    "latitude": 25.04348698,
    "coordinateStatus": "valid",
    "source": "臺北市公私立醫療院所－臺北市診所清冊"
  },
  {
    "id": "medical-clinic-115",
    "layer": "medical_facility",
    "facilityType": "clinic",
    "facilityName": "好健康診所",
    "medicalCategory": "診所",
    "address": "臺北市中正區公園路30號11樓",
    "districtCode": "63000050",
    "cityCode": "63000",
    "district": "中正區",
    "longitude": 121.5168566,
    "latitude": 25.0444824,
    "coordinateStatus": "valid",
    "source": "臺北市公私立醫療院所－臺北市診所清冊"
  },
  {
    "id": "medical-clinic-116",
    "layer": "medical_facility",
    "facilityType": "clinic",
    "facilityName": "美兆診所",
    "medicalCategory": "診所",
    "address": "臺北市中正區忠孝西路1段66號44.45樓",
    "districtCode": "63000050",
    "cityCode": "63000",
    "district": "中正區",
    "longitude": 121.5198716,
    "latitude": 25.0421407,
    "coordinateStatus": "valid",
    "source": "臺北市公私立醫療院所－臺北市診所清冊"
  },
  {
    "id": "medical-clinic-117",
    "layer": "medical_facility",
    "facilityType": "clinic",
    "facilityName": "美診所",
    "medicalCategory": "診所",
    "address": "臺北市中正區新生南路1段56號4樓",
    "districtCode": "63000050",
    "cityCode": "63000",
    "district": "中正區",
    "longitude": 121.5325038,
    "latitude": 25.04119529,
    "coordinateStatus": "valid",
    "source": "臺北市公私立醫療院所－臺北市診所清冊"
  },
  {
    "id": "medical-clinic-118",
    "layer": "medical_facility",
    "facilityType": "clinic",
    "facilityName": "星采皮膚專科診所",
    "medicalCategory": "診所",
    "address": "臺北市中正區羅斯福路一段32號2樓",
    "districtCode": "63000050",
    "cityCode": "63000",
    "district": "中正區",
    "longitude": 121.519057,
    "latitude": 25.03131016,
    "coordinateStatus": "valid",
    "source": "臺北市公私立醫療院所－臺北市診所清冊"
  },
  {
    "id": "medical-clinic-119",
    "layer": "medical_facility",
    "facilityType": "clinic",
    "facilityName": "長春藤台北忠孝診所",
    "medicalCategory": "診所",
    "address": "臺北市中正區忠孝西路1段50號27樓、27樓之3",
    "districtCode": "63000050",
    "cityCode": "63000",
    "district": "中正區",
    "longitude": 121.515823,
    "latitude": 25.04630433,
    "coordinateStatus": "valid",
    "source": "臺北市公私立醫療院所－臺北市診所清冊"
  },
  {
    "id": "medical-clinic-120",
    "layer": "medical_facility",
    "facilityType": "clinic",
    "facilityName": "?安診所",
    "medicalCategory": "診所",
    "address": "臺北市中正區和平西路一段20號5樓",
    "districtCode": "63000050",
    "cityCode": "63000",
    "district": "中正區",
    "longitude": 121.5208999,
    "latitude": 25.02663507,
    "coordinateStatus": "valid",
    "source": "臺北市公私立醫療院所－臺北市診所清冊"
  },
  {
    "id": "medical-clinic-121",
    "layer": "medical_facility",
    "facilityType": "clinic",
    "facilityName": "悅心診所",
    "medicalCategory": "診所",
    "address": "臺北市中正區羅斯福路2段7之2號、7之3號",
    "districtCode": "63000050",
    "cityCode": "63000",
    "district": "中正區",
    "longitude": 121.5211961,
    "latitude": 25.02910766,
    "coordinateStatus": "valid",
    "source": "臺北市公私立醫療院所－臺北市診所清冊"
  },
  {
    "id": "medical-clinic-122",
    "layer": "medical_facility",
    "facilityType": "clinic",
    "facilityName": "美麗新診所",
    "medicalCategory": "診所",
    "address": "臺北市中正區重慶南路1段43號2樓之1、2樓之2",
    "districtCode": "63000050",
    "cityCode": "63000",
    "district": "中正區",
    "longitude": 121.5133485,
    "latitude": 25.04495904,
    "coordinateStatus": "valid",
    "source": "臺北市公私立醫療院所－臺北市診所清冊"
  },
  {
    "id": "medical-clinic-123",
    "layer": "medical_facility",
    "facilityType": "clinic",
    "facilityName": "時尚診所",
    "medicalCategory": "診所",
    "address": "臺北市中正區忠孝西路一段33號10樓",
    "districtCode": "63000050",
    "cityCode": "63000",
    "district": "中正區",
    "longitude": 121.5187623,
    "latitude": 25.04607847,
    "coordinateStatus": "valid",
    "source": "臺北市公私立醫療院所－臺北市診所清冊"
  },
  {
    "id": "medical-clinic-124",
    "layer": "medical_facility",
    "facilityType": "clinic",
    "facilityName": "米蘭時尚診所",
    "medicalCategory": "診所",
    "address": "臺北市中正區忠孝東路1段43號、45號、45號2樓之1、45號2樓之2、45號2樓之3、45號2樓之5、47號、47之1號、45號10樓之1、45號10樓之2",
    "districtCode": "63000050",
    "cityCode": "63000",
    "district": "中正區",
    "longitude": 121.5216527,
    "latitude": 25.0452974,
    "coordinateStatus": "valid",
    "source": "臺北市公私立醫療院所－臺北市診所清冊"
  },
  {
    "id": "medical-clinic-125",
    "layer": "medical_facility",
    "facilityType": "clinic",
    "facilityName": "宏孕診所",
    "medicalCategory": "診所",
    "address": "臺北市中正區新生南路1段56號14、15樓",
    "districtCode": "63000050",
    "cityCode": "63000",
    "district": "中正區",
    "longitude": 121.5324664,
    "latitude": 25.0409171,
    "coordinateStatus": "valid",
    "source": "臺北市公私立醫療院所－臺北市診所清冊"
  },
  {
    "id": "medical-clinic-126",
    "layer": "medical_facility",
    "facilityType": "clinic",
    "facilityName": "禾馨婦產科診所",
    "medicalCategory": "診所",
    "address": "臺北市中正區懷寧街78號、78號2樓",
    "districtCode": "63000050",
    "cityCode": "63000",
    "district": "中正區",
    "longitude": 121.5139338,
    "latitude": 25.0432027,
    "coordinateStatus": "valid",
    "source": "臺北市公私立醫療院所－臺北市診所清冊"
  },
  {
    "id": "medical-clinic-127",
    "layer": "medical_facility",
    "facilityType": "clinic",
    "facilityName": "慕顏時尚美學診所",
    "medicalCategory": "診所",
    "address": "臺北市中正區衡陽路7號14樓",
    "districtCode": "63000050",
    "cityCode": "63000",
    "district": "中正區",
    "longitude": 121.5137609,
    "latitude": 25.04241394,
    "coordinateStatus": "valid",
    "source": "臺北市公私立醫療院所－臺北市診所清冊"
  },
  {
    "id": "medical-clinic-128",
    "layer": "medical_facility",
    "facilityType": "clinic",
    "facilityName": "渾然天成診所",
    "medicalCategory": "診所",
    "address": "臺北市中正區忠孝西路1段45號3樓",
    "districtCode": "63000050",
    "cityCode": "63000",
    "district": "中正區",
    "longitude": 121.5179344,
    "latitude": 25.04628235,
    "coordinateStatus": "valid",
    "source": "臺北市公私立醫療院所－臺北市診所清冊"
  },
  {
    "id": "medical-clinic-129",
    "layer": "medical_facility",
    "facilityType": "clinic",
    "facilityName": "祈新婦產科診所",
    "medicalCategory": "診所",
    "address": "臺北市中正區懷寧街78號9、10樓",
    "districtCode": "63000050",
    "cityCode": "63000",
    "district": "中正區",
    "longitude": 121.5139338,
    "latitude": 25.0432027,
    "coordinateStatus": "valid",
    "source": "臺北市公私立醫療院所－臺北市診所清冊"
  },
  {
    "id": "medical-clinic-130",
    "layer": "medical_facility",
    "facilityType": "clinic",
    "facilityName": "平安身心精神科診所",
    "medicalCategory": "診所",
    "address": "臺北市中正區羅斯福路三段218號",
    "districtCode": "63000050",
    "cityCode": "63000",
    "district": "中正區",
    "longitude": 121.5298662,
    "latitude": 25.0188004,
    "coordinateStatus": "valid",
    "source": "臺北市公私立醫療院所－臺北市診所清冊"
  },
  {
    "id": "medical-clinic-131",
    "layer": "medical_facility",
    "facilityType": "clinic",
    "facilityName": "悠媞時尚診所",
    "medicalCategory": "診所",
    "address": "臺北市中正區許昌街30號4樓",
    "districtCode": "63000050",
    "cityCode": "63000",
    "district": "中正區",
    "longitude": 121.515879,
    "latitude": 25.04545235,
    "coordinateStatus": "valid",
    "source": "臺北市公私立醫療院所－臺北市診所清冊"
  },
  {
    "id": "medical-clinic-132",
    "layer": "medical_facility",
    "facilityType": "clinic",
    "facilityName": "佳妍診所",
    "medicalCategory": "診所",
    "address": "臺北市中正區羅斯福路2段136號2樓",
    "districtCode": "63000050",
    "cityCode": "63000",
    "district": "中正區",
    "longitude": 121.5229481,
    "latitude": 25.02602274,
    "coordinateStatus": "valid",
    "source": "臺北市公私立醫療院所－臺北市診所清冊"
  },
  {
    "id": "medical-clinic-133",
    "layer": "medical_facility",
    "facilityType": "clinic",
    "facilityName": "博士眼科診所",
    "medicalCategory": "診所",
    "address": "臺北市中正區羅斯福路二段70號4樓之6、70號4樓之7、70號4樓之8",
    "districtCode": "63000050",
    "cityCode": "63000",
    "district": "中正區",
    "longitude": 121.5220446,
    "latitude": 25.02725181,
    "coordinateStatus": "valid",
    "source": "臺北市公私立醫療院所－臺北市診所清冊"
  },
  {
    "id": "medical-clinic-134",
    "layer": "medical_facility",
    "facilityType": "clinic",
    "facilityName": "時尚假期整形醫美診所",
    "medicalCategory": "診所",
    "address": "臺北市大同區南京西路278號2樓",
    "districtCode": "63000060",
    "cityCode": "63000",
    "district": "大同區",
    "longitude": 121.5147298,
    "latitude": 25.05346175,
    "coordinateStatus": "valid",
    "source": "臺北市公私立醫療院所－臺北市診所清冊"
  },
  {
    "id": "medical-clinic-135",
    "layer": "medical_facility",
    "facilityType": "clinic",
    "facilityName": "喜顏快時尚診所",
    "medicalCategory": "診所",
    "address": "臺北市大同區南京西路18巷4弄4之1號1樓",
    "districtCode": "63000060",
    "cityCode": "63000",
    "district": "大同區",
    "longitude": 121.5199007,
    "latitude": 25.05231444,
    "coordinateStatus": "valid",
    "source": "臺北市公私立醫療院所－臺北市診所清冊"
  },
  {
    "id": "medical-clinic-136",
    "layer": "medical_facility",
    "facilityType": "clinic",
    "facilityName": "台全診所",
    "medicalCategory": "診所",
    "address": "臺北市大同區承德路1段17之1號(1樓)、17之2號(1樓)、17之3號(1樓)、17之4號(1樓)及17號地下1層",
    "districtCode": "63000060",
    "cityCode": "63000",
    "district": "大同區",
    "longitude": 121.5113064,
    "latitude": 25.0627243,
    "coordinateStatus": "valid",
    "source": "臺北市公私立醫療院所－臺北市診所清冊"
  },
  {
    "id": "medical-clinic-137",
    "layer": "medical_facility",
    "facilityType": "clinic",
    "facilityName": "臺北市立聯合醫院附設大同門診部",
    "medicalCategory": "診所",
    "address": "臺北市大同區昌吉街52號(1樓及2樓)",
    "districtCode": "63000060",
    "cityCode": "63000",
    "district": "大同區",
    "longitude": 121.5162533,
    "latitude": 25.0656996,
    "coordinateStatus": "valid",
    "source": "臺北市公私立醫療院所－臺北市診所清冊"
  },
  {
    "id": "medical-clinic-138",
    "layer": "medical_facility",
    "facilityType": "clinic",
    "facilityName": "鈞生診所",
    "medicalCategory": "診所",
    "address": "臺北市大同區甘州街２８號",
    "districtCode": "63000060",
    "cityCode": "63000",
    "district": "大同區",
    "longitude": 121.5127879,
    "latitude": 25.05883559,
    "coordinateStatus": "valid",
    "source": "臺北市公私立醫療院所－臺北市診所清冊"
  },
  {
    "id": "medical-clinic-139",
    "layer": "medical_facility",
    "facilityType": "clinic",
    "facilityName": "施小兒科診所",
    "medicalCategory": "診所",
    "address": "臺北市大同區重慶北路三段２８號",
    "districtCode": "63000060",
    "cityCode": "63000",
    "district": "大同區",
    "longitude": 121.5134606,
    "latitude": 25.06509022,
    "coordinateStatus": "valid",
    "source": "臺北市公私立醫療院所－臺北市診所清冊"
  },
  {
    "id": "medical-clinic-140",
    "layer": "medical_facility",
    "facilityType": "clinic",
    "facilityName": "蔡健生內、神經科診所",
    "medicalCategory": "診所",
    "address": "臺北市大同區大龍街１８７巷３０號",
    "districtCode": "63000060",
    "cityCode": "63000",
    "district": "大同區",
    "longitude": 121.5167092,
    "latitude": 25.0690992,
    "coordinateStatus": "valid",
    "source": "臺北市公私立醫療院所－臺北市診所清冊"
  },
  {
    "id": "medical-clinic-141",
    "layer": "medical_facility",
    "facilityType": "clinic",
    "facilityName": "蔡皮膚科診所",
    "medicalCategory": "診所",
    "address": "臺北市大同區重慶北路二段１１５號",
    "districtCode": "63000060",
    "cityCode": "63000",
    "district": "大同區",
    "longitude": 121.513889,
    "latitude": 25.0574739,
    "coordinateStatus": "valid",
    "source": "臺北市公私立醫療院所－臺北市診所清冊"
  },
  {
    "id": "medical-clinic-142",
    "layer": "medical_facility",
    "facilityType": "clinic",
    "facilityName": "黃博裕小兒科診所",
    "medicalCategory": "診所",
    "address": "臺北市大同區赤峰街４９巷２１號",
    "districtCode": "63000060",
    "cityCode": "63000",
    "district": "大同區",
    "longitude": 121.5202697,
    "latitude": 25.05576565,
    "coordinateStatus": "valid",
    "source": "臺北市公私立醫療院所－臺北市診所清冊"
  },
  {
    "id": "medical-clinic-143",
    "layer": "medical_facility",
    "facilityType": "clinic",
    "facilityName": "桂林內科診所",
    "medicalCategory": "診所",
    "address": "臺北市大同區太原路６２號",
    "districtCode": "63000060",
    "cityCode": "63000",
    "district": "大同區",
    "longitude": 121.515453,
    "latitude": 25.05160296,
    "coordinateStatus": "valid",
    "source": "臺北市公私立醫療院所－臺北市診所清冊"
  },
  {
    "id": "medical-clinic-144",
    "layer": "medical_facility",
    "facilityType": "clinic",
    "facilityName": "陳重熙內科小兒科診所",
    "medicalCategory": "診所",
    "address": "臺北市大同區保安街３之４號",
    "districtCode": "63000060",
    "cityCode": "63000",
    "district": "大同區",
    "longitude": 121.5139759,
    "latitude": 25.05935328,
    "coordinateStatus": "valid",
    "source": "臺北市公私立醫療院所－臺北市診所清冊"
  },
  {
    "id": "medical-clinic-145",
    "layer": "medical_facility",
    "facilityType": "clinic",
    "facilityName": "余自興眼科診所",
    "medicalCategory": "診所",
    "address": "臺北市大同區重慶北路三段二一三號一樓",
    "districtCode": "63000060",
    "cityCode": "63000",
    "district": "大同區",
    "longitude": 121.5139818,
    "latitude": 25.07024847,
    "coordinateStatus": "valid",
    "source": "臺北市公私立醫療院所－臺北市診所清冊"
  },
  {
    "id": "medical-clinic-146",
    "layer": "medical_facility",
    "facilityType": "clinic",
    "facilityName": "黃眼科診所",
    "medicalCategory": "診所",
    "address": "臺北市大同區重慶北路三段２５６號２樓",
    "districtCode": "63000060",
    "cityCode": "63000",
    "district": "大同區",
    "longitude": 121.5135837,
    "latitude": 25.07139926,
    "coordinateStatus": "valid",
    "source": "臺北市公私立醫療院所－臺北市診所清冊"
  },
  {
    "id": "medical-clinic-147",
    "layer": "medical_facility",
    "facilityType": "clinic",
    "facilityName": "大龍峒耳鼻喉科診所",
    "medicalCategory": "診所",
    "address": "臺北市大同區民族西路223之5號",
    "districtCode": "63000060",
    "cityCode": "63000",
    "district": "大同區",
    "longitude": 121.5128326,
    "latitude": 25.06877266,
    "coordinateStatus": "valid",
    "source": "臺北市公私立醫療院所－臺北市診所清冊"
  },
  {
    "id": "medical-clinic-148",
    "layer": "medical_facility",
    "facilityType": "clinic",
    "facilityName": "包眼科診所",
    "medicalCategory": "診所",
    "address": "臺北市大同區保安街５４之１號",
    "districtCode": "63000060",
    "cityCode": "63000",
    "district": "大同區",
    "longitude": 121.5126736,
    "latitude": 25.05906106,
    "coordinateStatus": "valid",
    "source": "臺北市公私立醫療院所－臺北市診所清冊"
  },
  {
    "id": "medical-clinic-149",
    "layer": "medical_facility",
    "facilityType": "clinic",
    "facilityName": "朱世輝耳鼻喉科診所",
    "medicalCategory": "診所",
    "address": "臺北市大同區民權西路１０６號2樓",
    "districtCode": "63000060",
    "cityCode": "63000",
    "district": "大同區",
    "longitude": 121.517319,
    "latitude": 25.06272173,
    "coordinateStatus": "valid",
    "source": "臺北市公私立醫療院所－臺北市診所清冊"
  },
  {
    "id": "medical-clinic-150",
    "layer": "medical_facility",
    "facilityType": "clinic",
    "facilityName": "周承良耳鼻喉科診所",
    "medicalCategory": "診所",
    "address": "臺北市大同區延平北路一段二十二號",
    "districtCode": "63000060",
    "cityCode": "63000",
    "district": "大同區",
    "longitude": 121.5118878,
    "latitude": 25.05053444,
    "coordinateStatus": "valid",
    "source": "臺北市公私立醫療院所－臺北市診所清冊"
  },
  {
    "id": "medical-clinic-151",
    "layer": "medical_facility",
    "facilityType": "clinic",
    "facilityName": "張漢權內科診所",
    "medicalCategory": "診所",
    "address": "臺北市大同區重慶北路一段９２號",
    "districtCode": "63000060",
    "cityCode": "63000",
    "district": "大同區",
    "longitude": 121.5139262,
    "latitude": 25.05265428,
    "coordinateStatus": "valid",
    "source": "臺北市公私立醫療院所－臺北市診所清冊"
  },
  {
    "id": "medical-clinic-152",
    "layer": "medical_facility",
    "facilityType": "clinic",
    "facilityName": "聖心婦家醫診所",
    "medicalCategory": "診所",
    "address": "臺北市大同區保安街1之1號(1樓)",
    "districtCode": "63000060",
    "cityCode": "63000",
    "district": "大同區",
    "longitude": 121.5143158,
    "latitude": 25.0597941,
    "coordinateStatus": "valid",
    "source": "臺北市公私立醫療院所－臺北市診所清冊"
  },
  {
    "id": "medical-clinic-153",
    "layer": "medical_facility",
    "facilityType": "clinic",
    "facilityName": "中華民國防癆協會第一胸腔病防治所",
    "medicalCategory": "診所",
    "address": "臺北市大同區民權西路一○四號二樓",
    "districtCode": "63000060",
    "cityCode": "63000",
    "district": "大同區",
    "longitude": 121.51752,
    "latitude": 25.06270491,
    "coordinateStatus": "valid",
    "source": "臺北市公私立醫療院所－臺北市診所清冊"
  },
  {
    "id": "medical-clinic-154",
    "layer": "medical_facility",
    "facilityType": "clinic",
    "facilityName": "周皮膚科診所",
    "medicalCategory": "診所",
    "address": "臺北市大同區延平北路一段二十六號",
    "districtCode": "63000060",
    "cityCode": "63000",
    "district": "大同區",
    "longitude": 121.511881,
    "latitude": 25.05062325,
    "coordinateStatus": "valid",
    "source": "臺北市公私立醫療院所－臺北市診所清冊"
  },
  {
    "id": "medical-clinic-155",
    "layer": "medical_facility",
    "facilityType": "clinic",
    "facilityName": "延平耳鼻喉科診所",
    "medicalCategory": "診所",
    "address": "臺北市大同區重慶北路二段二三五之四號一樓",
    "districtCode": "63000060",
    "cityCode": "63000",
    "district": "大同區",
    "longitude": 121.5137377,
    "latitude": 25.06226271,
    "coordinateStatus": "valid",
    "source": "臺北市公私立醫療院所－臺北市診所清冊"
  },
  {
    "id": "medical-clinic-156",
    "layer": "medical_facility",
    "facilityType": "clinic",
    "facilityName": "台北聖仁皮膚科診所",
    "medicalCategory": "診所",
    "address": "臺北市大同區南京西路71號2樓",
    "districtCode": "63000060",
    "cityCode": "63000",
    "district": "大同區",
    "longitude": 121.5187699,
    "latitude": 25.05316751,
    "coordinateStatus": "valid",
    "source": "臺北市公私立醫療院所－臺北市診所清冊"
  },
  {
    "id": "medical-clinic-157",
    "layer": "medical_facility",
    "facilityType": "clinic",
    "facilityName": "黃隆慶婦產科診所",
    "medicalCategory": "診所",
    "address": "臺北市大同區歸綏街181號2樓之1",
    "districtCode": "63000060",
    "cityCode": "63000",
    "district": "大同區",
    "longitude": 121.5131454,
    "latitude": 25.05827692,
    "coordinateStatus": "valid",
    "source": "臺北市公私立醫療院所－臺北市診所清冊"
  },
  {
    "id": "medical-clinic-158",
    "layer": "medical_facility",
    "facilityType": "clinic",
    "facilityName": "廣安診所",
    "medicalCategory": "診所",
    "address": "臺北市大同區大龍街１７７巷３號",
    "districtCode": "63000060",
    "cityCode": "63000",
    "district": "大同區",
    "longitude": 121.5161289,
    "latitude": 25.06894713,
    "coordinateStatus": "valid",
    "source": "臺北市公私立醫療院所－臺北市診所清冊"
  },
  {
    "id": "medical-clinic-159",
    "layer": "medical_facility",
    "facilityType": "clinic",
    "facilityName": "羅志弘診所",
    "medicalCategory": "診所",
    "address": "臺北市大同區重慶北路三段１１５號",
    "districtCode": "63000060",
    "cityCode": "63000",
    "district": "大同區",
    "longitude": 121.5139313,
    "latitude": 25.06748717,
    "coordinateStatus": "valid",
    "source": "臺北市公私立醫療院所－臺北市診所清冊"
  },
  {
    "id": "medical-clinic-160",
    "layer": "medical_facility",
    "facilityType": "clinic",
    "facilityName": "夏立雲診所",
    "medicalCategory": "診所",
    "address": "臺北市大同區保安街４３號",
    "districtCode": "63000060",
    "cityCode": "63000",
    "district": "大同區",
    "longitude": 121.5123314,
    "latitude": 25.0591614,
    "coordinateStatus": "valid",
    "source": "臺北市公私立醫療院所－臺北市診所清冊"
  },
  {
    "id": "medical-clinic-161",
    "layer": "medical_facility",
    "facilityType": "clinic",
    "facilityName": "趙黎海診所",
    "medicalCategory": "診所",
    "address": "臺北市大同區哈密街六十七號",
    "districtCode": "63000060",
    "cityCode": "63000",
    "district": "大同區",
    "longitude": 121.515205,
    "latitude": 25.07307041,
    "coordinateStatus": "valid",
    "source": "臺北市公私立醫療院所－臺北市診所清冊"
  },
  {
    "id": "medical-clinic-162",
    "layer": "medical_facility",
    "facilityType": "clinic",
    "facilityName": "建成診所",
    "medicalCategory": "診所",
    "address": "臺北市大同區長安西路82號",
    "districtCode": "63000060",
    "cityCode": "63000",
    "district": "大同區",
    "longitude": 121.5191825,
    "latitude": 25.050303,
    "coordinateStatus": "valid",
    "source": "臺北市公私立醫療院所－臺北市診所清冊"
  },
  {
    "id": "medical-clinic-163",
    "layer": "medical_facility",
    "facilityType": "clinic",
    "facilityName": "廣博診所",
    "medicalCategory": "診所",
    "address": "臺北市大同區長安西路二二O巷五號",
    "districtCode": "63000060",
    "cityCode": "63000",
    "district": "大同區",
    "longitude": 121.5147477,
    "latitude": 25.051401,
    "coordinateStatus": "valid",
    "source": "臺北市公私立醫療院所－臺北市診所清冊"
  },
  {
    "id": "medical-clinic-164",
    "layer": "medical_facility",
    "facilityType": "clinic",
    "facilityName": "伊甸診所",
    "medicalCategory": "診所",
    "address": "臺北市大同區承德路一段66號8樓",
    "districtCode": "63000060",
    "cityCode": "63000",
    "district": "大同區",
    "longitude": 121.5171487,
    "latitude": 25.05204859,
    "coordinateStatus": "valid",
    "source": "臺北市公私立醫療院所－臺北市診所清冊"
  },
  {
    "id": "medical-clinic-165",
    "layer": "medical_facility",
    "facilityType": "clinic",
    "facilityName": "林仲皮膚科診所",
    "medicalCategory": "診所",
    "address": "臺北市大同區延平北路2段20號",
    "districtCode": "63000060",
    "cityCode": "63000",
    "district": "大同區",
    "longitude": 121.5116401,
    "latitude": 25.0543401,
    "coordinateStatus": "valid",
    "source": "臺北市公私立醫療院所－臺北市診所清冊"
  },
  {
    "id": "medical-clinic-166",
    "layer": "medical_facility",
    "facilityType": "clinic",
    "facilityName": "和泰內科診所",
    "medicalCategory": "診所",
    "address": "臺北市大同區南京西路406號8樓",
    "districtCode": "63000060",
    "cityCode": "63000",
    "district": "大同區",
    "longitude": 121.5098505,
    "latitude": 25.05320318,
    "coordinateStatus": "valid",
    "source": "臺北市公私立醫療院所－臺北市診所清冊"
  },
  {
    "id": "medical-clinic-167",
    "layer": "medical_facility",
    "facilityType": "clinic",
    "facilityName": "羅源彰診所",
    "medicalCategory": "診所",
    "address": "臺北市大同區長安西路137號",
    "districtCode": "63000060",
    "cityCode": "63000",
    "district": "大同區",
    "longitude": 121.515086,
    "latitude": 25.0514479,
    "coordinateStatus": "valid",
    "source": "臺北市公私立醫療院所－臺北市診所清冊"
  },
  {
    "id": "medical-clinic-168",
    "layer": "medical_facility",
    "facilityType": "clinic",
    "facilityName": "梅約內科診所",
    "medicalCategory": "診所",
    "address": "臺北市大同區長安西路88號1、2、3樓",
    "districtCode": "63000060",
    "cityCode": "63000",
    "district": "大同區",
    "longitude": 121.5189682,
    "latitude": 25.05035139,
    "coordinateStatus": "valid",
    "source": "臺北市公私立醫療院所－臺北市診所清冊"
  },
  {
    "id": "medical-clinic-169",
    "layer": "medical_facility",
    "facilityType": "clinic",
    "facilityName": "慶吉診所",
    "medicalCategory": "診所",
    "address": "臺北市大同區重慶北路三段209號",
    "districtCode": "63000060",
    "cityCode": "63000",
    "district": "大同區",
    "longitude": 121.5139786,
    "latitude": 25.07017054,
    "coordinateStatus": "valid",
    "source": "臺北市公私立醫療院所－臺北市診所清冊"
  },
  {
    "id": "medical-clinic-170",
    "layer": "medical_facility",
    "facilityType": "clinic",
    "facilityName": "澤康診所",
    "medicalCategory": "診所",
    "address": "臺北市大同區重慶北路三段71號",
    "districtCode": "63000060",
    "cityCode": "63000",
    "district": "大同區",
    "longitude": 121.5139096,
    "latitude": 25.06634774,
    "coordinateStatus": "valid",
    "source": "臺北市公私立醫療院所－臺北市診所清冊"
  },
  {
    "id": "medical-clinic-171",
    "layer": "medical_facility",
    "facilityType": "clinic",
    "facilityName": "建順診所",
    "medicalCategory": "診所",
    "address": "臺北市大同區甘州街51號",
    "districtCode": "63000060",
    "cityCode": "63000",
    "district": "大同區",
    "longitude": 121.5128537,
    "latitude": 25.05967673,
    "coordinateStatus": "valid",
    "source": "臺北市公私立醫療院所－臺北市診所清冊"
  },
  {
    "id": "medical-clinic-172",
    "layer": "medical_facility",
    "facilityType": "clinic",
    "facilityName": "梅約診所",
    "medicalCategory": "診所",
    "address": "臺北市大同區長安西路88號1、2、3樓",
    "districtCode": "63000060",
    "cityCode": "63000",
    "district": "大同區",
    "longitude": 121.5189682,
    "latitude": 25.05035139,
    "coordinateStatus": "valid",
    "source": "臺北市公私立醫療院所－臺北市診所清冊"
  },
  {
    "id": "medical-clinic-173",
    "layer": "medical_facility",
    "facilityType": "clinic",
    "facilityName": "夏凱納生活診所",
    "medicalCategory": "診所",
    "address": "臺北市大同區五原路15號、19號2樓",
    "districtCode": "63000060",
    "cityCode": "63000",
    "district": "大同區",
    "longitude": 121.5174404,
    "latitude": 25.0566598,
    "coordinateStatus": "valid",
    "source": "臺北市公私立醫療院所－臺北市診所清冊"
  },
  {
    "id": "medical-clinic-174",
    "layer": "medical_facility",
    "facilityType": "clinic",
    "facilityName": "宜康復健科診所",
    "medicalCategory": "診所",
    "address": "臺北市大同區民族西路124號、124之1號及126號",
    "districtCode": "63000060",
    "cityCode": "63000",
    "district": "大同區",
    "longitude": 121.5166062,
    "latitude": 25.06844764,
    "coordinateStatus": "valid",
    "source": "臺北市公私立醫療院所－臺北市診所清冊"
  },
  {
    "id": "medical-clinic-175",
    "layer": "medical_facility",
    "facilityType": "clinic",
    "facilityName": "南西司鉑診所",
    "medicalCategory": "診所",
    "address": "臺北市大同區南京西路30號10樓之1",
    "districtCode": "63000060",
    "cityCode": "63000",
    "district": "大同區",
    "longitude": 121.5198536,
    "latitude": 25.05261058,
    "coordinateStatus": "valid",
    "source": "臺北市公私立醫療院所－臺北市診所清冊"
  },
  {
    "id": "medical-clinic-176",
    "layer": "medical_facility",
    "facilityType": "clinic",
    "facilityName": "永欣診所",
    "medicalCategory": "診所",
    "address": "臺北市大同區南京西路30號3樓之3",
    "districtCode": "63000060",
    "cityCode": "63000",
    "district": "大同區",
    "longitude": 121.5198557,
    "latitude": 25.0526014,
    "coordinateStatus": "valid",
    "source": "臺北市公私立醫療院所－臺北市診所清冊"
  },
  {
    "id": "medical-clinic-177",
    "layer": "medical_facility",
    "facilityType": "clinic",
    "facilityName": "南西維格皮膚科診所",
    "medicalCategory": "診所",
    "address": "臺北市大同區南京西路22號3樓之1、3樓之2",
    "districtCode": "63000060",
    "cityCode": "63000",
    "district": "大同區",
    "longitude": 121.5199933,
    "latitude": 25.05257769,
    "coordinateStatus": "valid",
    "source": "臺北市公私立醫療院所－臺北市診所清冊"
  },
  {
    "id": "medical-clinic-178",
    "layer": "medical_facility",
    "facilityType": "clinic",
    "facilityName": "祥恩耳鼻喉科診所",
    "medicalCategory": "診所",
    "address": "臺北市大同區民生西路195號",
    "districtCode": "63000060",
    "cityCode": "63000",
    "district": "大同區",
    "longitude": 121.5167145,
    "latitude": 25.05728171,
    "coordinateStatus": "valid",
    "source": "臺北市公私立醫療院所－臺北市診所清冊"
  },
  {
    "id": "medical-clinic-179",
    "layer": "medical_facility",
    "facilityType": "clinic",
    "facilityName": "祐雙診所",
    "medicalCategory": "診所",
    "address": "臺北市大同區民生西路138號2樓",
    "districtCode": "63000060",
    "cityCode": "63000",
    "district": "大同區",
    "longitude": 121.5188847,
    "latitude": 25.05731117,
    "coordinateStatus": "valid",
    "source": "臺北市公私立醫療院所－臺北市診所清冊"
  },
  {
    "id": "medical-clinic-180",
    "layer": "medical_facility",
    "facilityType": "clinic",
    "facilityName": "永茂醫美診所",
    "medicalCategory": "診所",
    "address": "臺北市大同區南京西路22號8樓",
    "districtCode": "63000060",
    "cityCode": "63000",
    "district": "大同區",
    "longitude": 121.5200572,
    "latitude": 25.0525668,
    "coordinateStatus": "valid",
    "source": "臺北市公私立醫療院所－臺北市診所清冊"
  },
  {
    "id": "medical-clinic-181",
    "layer": "medical_facility",
    "facilityType": "clinic",
    "facilityName": "寧夏診所",
    "medicalCategory": "診所",
    "address": "臺北市大同區民生西路236號",
    "districtCode": "63000060",
    "cityCode": "63000",
    "district": "大同區",
    "longitude": 121.5144161,
    "latitude": 25.05689217,
    "coordinateStatus": "valid",
    "source": "臺北市公私立醫療院所－臺北市診所清冊"
  },
  {
    "id": "medical-clinic-182",
    "layer": "medical_facility",
    "facilityType": "clinic",
    "facilityName": "大同耳鼻喉科診所",
    "medicalCategory": "診所",
    "address": "臺北市大同區重慶北路三段250之3、250之4號",
    "districtCode": "63000060",
    "cityCode": "63000",
    "district": "大同區",
    "longitude": 121.5135665,
    "latitude": 25.0710051,
    "coordinateStatus": "valid",
    "source": "臺北市公私立醫療院所－臺北市診所清冊"
  },
  {
    "id": "medical-clinic-183",
    "layer": "medical_facility",
    "facilityType": "clinic",
    "facilityName": "紘成診所",
    "medicalCategory": "診所",
    "address": "臺北市大同區長安西路53巷7弄1之1號1樓",
    "districtCode": "63000060",
    "cityCode": "63000",
    "district": "大同區",
    "longitude": 121.5177977,
    "latitude": 25.0514658,
    "coordinateStatus": "valid",
    "source": "臺北市公私立醫療院所－臺北市診所清冊"
  },
  {
    "id": "medical-clinic-184",
    "layer": "medical_facility",
    "facilityType": "clinic",
    "facilityName": "志勛皮膚科診所",
    "medicalCategory": "診所",
    "address": "臺北市大同區重慶北路二段2、4號(實際營業地址:1、2及3樓)",
    "districtCode": "63000060",
    "cityCode": "63000",
    "district": "大同區",
    "longitude": 121.5141169,
    "latitude": 25.0542294,
    "coordinateStatus": "valid",
    "source": "臺北市公私立醫療院所－臺北市診所清冊"
  },
  {
    "id": "medical-clinic-185",
    "layer": "medical_facility",
    "facilityType": "clinic",
    "facilityName": "京站好萊塢診所",
    "medicalCategory": "診所",
    "address": "臺北市大同區鄭州路3號(1樓、2樓、3樓)",
    "districtCode": "63000060",
    "cityCode": "63000",
    "district": "大同區",
    "longitude": 121.5158363,
    "latitude": 25.0491127,
    "coordinateStatus": "valid",
    "source": "臺北市公私立醫療院所－臺北市診所清冊"
  },
  {
    "id": "medical-clinic-186",
    "layer": "medical_facility",
    "facilityType": "clinic",
    "facilityName": "夢工場整形醫美診所",
    "medicalCategory": "診所",
    "address": "臺北市大同區承德路一段32號5樓",
    "districtCode": "63000060",
    "cityCode": "63000",
    "district": "大同區",
    "longitude": 121.5167532,
    "latitude": 25.05068197,
    "coordinateStatus": "valid",
    "source": "臺北市公私立醫療院所－臺北市診所清冊"
  },
  {
    "id": "medical-clinic-187",
    "layer": "medical_facility",
    "facilityType": "clinic",
    "facilityName": "朵薇診所",
    "medicalCategory": "診所",
    "address": "臺北市大同區南京西路288號3樓之9、3樓之10、3樓之11",
    "districtCode": "63000060",
    "cityCode": "63000",
    "district": "大同區",
    "longitude": 121.5139886,
    "latitude": 25.05391002,
    "coordinateStatus": "valid",
    "source": "臺北市公私立醫療院所－臺北市診所清冊"
  },
  {
    "id": "medical-clinic-188",
    "layer": "medical_facility",
    "facilityType": "clinic",
    "facilityName": "新旅程復健科診所",
    "medicalCategory": "診所",
    "address": "臺北市大同區民權西路237之7號(實際營業樓層:1樓、2樓)及237之9號(實際營業樓層:1樓、2樓)",
    "districtCode": "63000060",
    "cityCode": "63000",
    "district": "大同區",
    "longitude": 121.5118262,
    "latitude": 25.0636155,
    "coordinateStatus": "valid",
    "source": "臺北市公私立醫療院所－臺北市診所清冊"
  },
  {
    "id": "medical-clinic-189",
    "layer": "medical_facility",
    "facilityType": "clinic",
    "facilityName": "佑佳內科診所",
    "medicalCategory": "診所",
    "address": "臺北市大同區承德路2段142號1樓及2樓",
    "districtCode": "63000060",
    "cityCode": "63000",
    "district": "大同區",
    "longitude": 121.5180041,
    "latitude": 25.05955401,
    "coordinateStatus": "valid",
    "source": "臺北市公私立醫療院所－臺北市診所清冊"
  },
  {
    "id": "medical-clinic-190",
    "layer": "medical_facility",
    "facilityType": "clinic",
    "facilityName": "喜聖診所",
    "medicalCategory": "診所",
    "address": "臺北市大同區長安西路235號(1樓)、237號(1樓)、239號2樓之1、239號2樓之2",
    "districtCode": "63000060",
    "cityCode": "63000",
    "district": "大同區",
    "longitude": 121.5116764,
    "latitude": 25.05212809,
    "coordinateStatus": "valid",
    "source": "臺北市公私立醫療院所－臺北市診所清冊"
  },
  {
    "id": "medical-clinic-191",
    "layer": "medical_facility",
    "facilityType": "clinic",
    "facilityName": "賢福診所",
    "medicalCategory": "診所",
    "address": "臺北市大同區民權西路148號2樓",
    "districtCode": "63000060",
    "cityCode": "63000",
    "district": "大同區",
    "longitude": 121.5157416,
    "latitude": 25.06276233,
    "coordinateStatus": "valid",
    "source": "臺北市公私立醫療院所－臺北市診所清冊"
  },
  {
    "id": "medical-clinic-192",
    "layer": "medical_facility",
    "facilityType": "clinic",
    "facilityName": "泉源診所",
    "medicalCategory": "診所",
    "address": "臺北市大同區庫倫街51之5號(1樓)",
    "districtCode": "63000060",
    "cityCode": "63000",
    "district": "大同區",
    "longitude": 121.5189724,
    "latitude": 25.0720651,
    "coordinateStatus": "valid",
    "source": "臺北市公私立醫療院所－臺北市診所清冊"
  },
  {
    "id": "medical-clinic-193",
    "layer": "medical_facility",
    "facilityType": "clinic",
    "facilityName": "牧人所身心醫學診所",
    "medicalCategory": "診所",
    "address": "臺北市大同區承德路3段232號1樓",
    "districtCode": "63000060",
    "cityCode": "63000",
    "district": "大同區",
    "longitude": 121.5185086,
    "latitude": 25.07240609,
    "coordinateStatus": "valid",
    "source": "臺北市公私立醫療院所－臺北市診所清冊"
  },
  {
    "id": "medical-clinic-194",
    "layer": "medical_facility",
    "facilityType": "clinic",
    "facilityName": "圓山診所",
    "medicalCategory": "診所",
    "address": "臺北市大同區酒泉街131號(1樓)",
    "districtCode": "63000060",
    "cityCode": "63000",
    "district": "大同區",
    "longitude": 121.5144821,
    "latitude": 25.0721497,
    "coordinateStatus": "valid",
    "source": "臺北市公私立醫療院所－臺北市診所清冊"
  },
  {
    "id": "medical-clinic-195",
    "layer": "medical_facility",
    "facilityType": "clinic",
    "facilityName": "秀冠植髮診所",
    "medicalCategory": "診所",
    "address": "臺北市大同區延平北路1段110號2樓",
    "districtCode": "63000060",
    "cityCode": "63000",
    "district": "大同區",
    "longitude": 121.5117232,
    "latitude": 25.05285055,
    "coordinateStatus": "valid",
    "source": "臺北市公私立醫療院所－臺北市診所清冊"
  },
  {
    "id": "medical-clinic-196",
    "layer": "medical_facility",
    "facilityType": "clinic",
    "facilityName": "千暘診所",
    "medicalCategory": "診所",
    "address": "臺北市大同區民權西路268號2樓、2樓之1、2樓之3",
    "districtCode": "63000060",
    "cityCode": "63000",
    "district": "大同區",
    "longitude": 121.5120682,
    "latitude": 25.06273724,
    "coordinateStatus": "valid",
    "source": "臺北市公私立醫療院所－臺北市診所清冊"
  },
  {
    "id": "medical-clinic-197",
    "layer": "medical_facility",
    "facilityType": "clinic",
    "facilityName": "聖方診所",
    "medicalCategory": "診所",
    "address": "臺北市大同區長安西路177巷2號(1樓、2樓、3樓)",
    "districtCode": "63000060",
    "cityCode": "63000",
    "district": "大同區",
    "longitude": 121.5136827,
    "latitude": 25.0523477,
    "coordinateStatus": "valid",
    "source": "臺北市公私立醫療院所－臺北市診所清冊"
  },
  {
    "id": "medical-clinic-198",
    "layer": "medical_facility",
    "facilityType": "clinic",
    "facilityName": "美平方健康美學診所",
    "medicalCategory": "診所",
    "address": "臺北市大同區鄭州路119號2樓之1",
    "districtCode": "63000060",
    "cityCode": "63000",
    "district": "大同區",
    "longitude": 121.5109697,
    "latitude": 25.0503203,
    "coordinateStatus": "valid",
    "source": "臺北市公私立醫療院所－臺北市診所清冊"
  },
  {
    "id": "medical-clinic-199",
    "layer": "medical_facility",
    "facilityType": "clinic",
    "facilityName": "悅昇診所",
    "medicalCategory": "診所",
    "address": "臺北市大同區錦西街50之1號(1樓)",
    "districtCode": "63000060",
    "cityCode": "63000",
    "district": "大同區",
    "longitude": 121.5199715,
    "latitude": 25.060238,
    "coordinateStatus": "valid",
    "source": "臺北市公私立醫療院所－臺北市診所清冊"
  },
  {
    "id": "medical-clinic-200",
    "layer": "medical_facility",
    "facilityType": "clinic",
    "facilityName": "妍植國際醫美診所",
    "medicalCategory": "診所",
    "address": "臺北市大同區南京西路44號(1、2、3樓)",
    "districtCode": "63000060",
    "cityCode": "63000",
    "district": "大同區",
    "longitude": 121.5193898,
    "latitude": 25.0527103,
    "coordinateStatus": "valid",
    "source": "臺北市公私立醫療院所－臺北市診所清冊"
  },
  {
    "id": "medical-clinic-201",
    "layer": "medical_facility",
    "facilityType": "clinic",
    "facilityName": "玉妍美醫美診所",
    "medicalCategory": "診所",
    "address": "臺北市中山區中山北路2段145號(1樓、2樓)",
    "cityCode": "63000",
    "district": "中山區",
    "longitude": 121.5227741,
    "latitude": 25.0622191,
    "coordinateStatus": "valid",
    "source": "臺北市公私立醫療院所－臺北市診所清冊"
  },
  {
    "id": "medical-clinic-202",
    "layer": "medical_facility",
    "facilityType": "clinic",
    "facilityName": "薇光御境美學診所",
    "medicalCategory": "診所",
    "address": "臺北市中山區樂群二路265巷40號(1、2樓)、42號(1、2樓)",
    "districtCode": "63000040",
    "cityCode": "63000",
    "district": "中山區",
    "longitude": 121.560388,
    "latitude": 25.0811607,
    "coordinateStatus": "valid",
    "source": "臺北市公私立醫療院所－臺北市診所清冊"
  },
  {
    "id": "medical-clinic-203",
    "layer": "medical_facility",
    "facilityType": "clinic",
    "facilityName": "沐慕身心診所",
    "medicalCategory": "診所",
    "address": "臺北市中山區四平街20號5樓",
    "districtCode": "63000040",
    "cityCode": "63000",
    "district": "中山區",
    "longitude": 121.5309386,
    "latitude": 25.05359738,
    "coordinateStatus": "valid",
    "source": "臺北市公私立醫療院所－臺北市診所清冊"
  },
  {
    "id": "medical-clinic-204",
    "layer": "medical_facility",
    "facilityType": "clinic",
    "facilityName": "泓采診所",
    "medicalCategory": "診所",
    "address": "臺北市中山區建國北路2段137號1樓",
    "districtCode": "63000040",
    "cityCode": "63000",
    "district": "中山區",
    "longitude": 121.537478,
    "latitude": 25.06049867,
    "coordinateStatus": "valid",
    "source": "臺北市公私立醫療院所－臺北市診所清冊"
  },
  {
    "id": "medical-clinic-205",
    "layer": "medical_facility",
    "facilityType": "clinic",
    "facilityName": "晨昕診所",
    "medicalCategory": "診所",
    "address": "臺北市中山區復興北路350號3樓",
    "districtCode": "63000040",
    "cityCode": "63000",
    "district": "中山區",
    "longitude": 121.5439298,
    "latitude": 25.06006995,
    "coordinateStatus": "valid",
    "source": "臺北市公私立醫療院所－臺北市診所清冊"
  },
  {
    "id": "medical-clinic-206",
    "layer": "medical_facility",
    "facilityType": "clinic",
    "facilityName": "大直光澤診所",
    "medicalCategory": "診所",
    "address": "臺北市中山區敬業二路88號(1樓)",
    "districtCode": "63000040",
    "cityCode": "63000",
    "district": "中山區",
    "longitude": 121.554461,
    "latitude": 25.0821445,
    "coordinateStatus": "valid",
    "source": "臺北市公私立醫療院所－臺北市診所清冊"
  },
  {
    "id": "medical-clinic-207",
    "layer": "medical_facility",
    "facilityType": "clinic",
    "facilityName": "肌優谷大直萬豪診所",
    "medicalCategory": "診所",
    "address": "臺北市中山區樂群二路265巷16號(1、2樓)",
    "districtCode": "63000040",
    "cityCode": "63000",
    "district": "中山區",
    "longitude": 121.5607995,
    "latitude": 25.0807537,
    "coordinateStatus": "valid",
    "source": "臺北市公私立醫療院所－臺北市診所清冊"
  },
  {
    "id": "medical-clinic-208",
    "layer": "medical_facility",
    "facilityType": "clinic",
    "facilityName": "禾康診所",
    "medicalCategory": "診所",
    "address": "臺北市中山區林森北路486號1樓",
    "districtCode": "63000040",
    "cityCode": "63000",
    "district": "中山區",
    "longitude": 121.5254823,
    "latitude": 25.0614079,
    "coordinateStatus": "valid",
    "source": "臺北市公私立醫療院所－臺北市診所清冊"
  },
  {
    "id": "medical-clinic-209",
    "layer": "medical_facility",
    "facilityType": "clinic",
    "facilityName": "中山適康復健科診所",
    "medicalCategory": "診所",
    "address": "臺北市中山區龍江路268號(1樓)、270號2樓之1",
    "districtCode": "63000040",
    "cityCode": "63000",
    "district": "中山區",
    "longitude": 121.5406439,
    "latitude": 25.0605744,
    "coordinateStatus": "valid",
    "source": "臺北市公私立醫療院所－臺北市診所清冊"
  },