[
  {
    "id": "traffic-cctv-1",
    "layer": "traffic_cctv",
    "sourceSequenceNumber": 1,
    "city": "臺北市",
    "cameraLocationCodeRaw": "001-市民快承德",
    "cameraLocationCode": "001",
    "locationDescription": "市民快承德",
    "longitude": 121.5169,
    "latitude": 25.04855,
    "coordinateStatus": "valid",
    "source": "臺北市CCTV設施",
    "sourceAgency": "臺北市政府交通局交通管制工程處"
  },
  {
    "id": "traffic-cctv-2",
    "layer": "traffic_cctv",
    "sourceSequenceNumber": 2,
    "city": "臺北市",
    "cameraLocationCodeRaw": "002-環快忠孝橋",
    "cameraLocationCode": "002",
    "locationDescription": "環快忠孝橋",
    "longitude": 121.50604,
    "latitude": 25.04925,
    "coordinateStatus": "valid",
    "source": "臺北市CCTV設施",
    "sourceAgency": "臺北市政府交通局交通管制工程處"
  },
  {
    "id": "traffic-cctv-3",
    "layer": "traffic_cctv",
    "sourceSequenceNumber": 3,
    "city": "臺北市",
    "cameraLocationCodeRaw": "003-環快中興橋",
    "cameraLocationCode": "003",
    "locationDescription": "環快中興橋",
    "longitude": 121.50068,
    "latitude": 25.0442,
    "coordinateStatus": "valid",
    "source": "臺北市CCTV設施",
    "sourceAgency": "臺北市政府交通局交通管制工程處"
  },
  {
    "id": "traffic-cctv-4",
    "layer": "traffic_cctv",
    "sourceSequenceNumber": 4,
    "city": "臺北市",
    "cameraLocationCodeRaw": "004-環快華江橋",
    "cameraLocationCode": "004",
    "locationDescription": "環快華江橋",
    "longitude": 121.49042,
    "latitude": 25.03527,
    "coordinateStatus": "valid",
    "source": "臺北市CCTV設施",
    "sourceAgency": "臺北市政府交通局交通管制工程處"
  },
  {
    "id": "traffic-cctv-5",
    "layer": "traffic_cctv",
    "sourceSequenceNumber": 5,
    "city": "臺北市",
    "cameraLocationCodeRaw": "005-環快光復橋",
    "cameraLocationCode": "005",
    "locationDescription": "環快光復橋",
    "longitude": 121.4913,
    "latitude": 25.02484,
    "coordinateStatus": "valid",
    "source": "臺北市CCTV設施",
    "sourceAgency": "臺北市政府交通局交通管制工程處"
  },
  {
    "id": "traffic-cctv-6",
    "layer": "traffic_cctv",
    "sourceSequenceNumber": 6,
    "city": "臺北市",
    "cameraLocationCodeRaw": "006-環快華中橋",
    "cameraLocationCode": "006",
    "locationDescription": "環快華中橋",
    "longitude": 121.49531,
    "latitude": 25.01672,
    "coordinateStatus": "valid",
    "source": "臺北市CCTV設施",
    "sourceAgency": "臺北市政府交通局交通管制工程處"
  },
  {
    "id": "traffic-cctv-7",
    "layer": "traffic_cctv",
    "sourceSequenceNumber": 7,
    "city": "臺北市",
    "cameraLocationCodeRaw": "008-水源快師大",
    "cameraLocationCode": "008",
    "locationDescription": "水源快師大",
    "longitude": 121.52228,
    "latitude": 25.02049,
    "coordinateStatus": "valid",
    "source": "臺北市CCTV設施",
    "sourceAgency": "臺北市政府交通局交通管制工程處"
  },
  {
    "id": "traffic-cctv-8",
    "layer": "traffic_cctv",
    "sourceSequenceNumber": 8,
    "city": "臺北市",
    "cameraLocationCodeRaw": "009-辛亥快汀州",
    "cameraLocationCode": "009",
    "locationDescription": "辛亥快汀州",
    "longitude": 121.52688,
    "latitude": 25.01883,
    "coordinateStatus": "valid",
    "source": "臺北市CCTV設施",
    "sourceAgency": "臺北市政府交通局交通管制工程處"
  },
  {
    "id": "traffic-cctv-9",
    "layer": "traffic_cctv",
    "sourceSequenceNumber": 9,
    "city": "臺北市",
    "cameraLocationCodeRaw": "010-辛亥快泰順",
    "cameraLocationCode": "010",
    "locationDescription": "辛亥快泰順",
    "longitude": 121.5295,
    "latitude": 25.01993,
    "coordinateStatus": "valid",
    "source": "臺北市CCTV設施",
    "sourceAgency": "臺北市政府交通局交通管制工程處"
  },
  {
    "id": "traffic-cctv-10",
    "layer": "traffic_cctv",
    "sourceSequenceNumber": 10,
    "city": "臺北市",
    "cameraLocationCodeRaw": "011-辛亥快新生南",
    "cameraLocationCode": "011",
    "locationDescription": "辛亥快新生南",
    "longitude": 121.53452,
    "latitude": 25.02264,
    "coordinateStatus": "valid",
    "source": "臺北市CCTV設施",
    "sourceAgency": "臺北市政府交通局交通管制工程處"
  },
  {
    "id": "traffic-cctv-11",
    "layer": "traffic_cctv",
    "sourceSequenceNumber": 11,
    "city": "臺北市",
    "cameraLocationCodeRaw": "012-建國快辛亥",
    "cameraLocationCode": "012",
    "locationDescription": "建國快辛亥",
    "longitude": 121.53637,
    "latitude": 25.02242,
    "coordinateStatus": "valid",
    "source": "臺北市CCTV設施",
    "sourceAgency": "臺北市政府交通局交通管制工程處"
  },
  {
    "id": "traffic-cctv-12",
    "layer": "traffic_cctv",
    "sourceSequenceNumber": 12,
    "city": "臺北市",
    "cameraLocationCodeRaw": "013-建國快和平",
    "cameraLocationCode": "013",
    "locationDescription": "建國快和平",
    "longitude": 121.53751,
    "latitude": 25.02576,
    "coordinateStatus": "valid",
    "source": "臺北市CCTV設施",
    "sourceAgency": "臺北市政府交通局交通管制工程處"
  },
  {
    "id": "traffic-cctv-13",
    "layer": "traffic_cctv",
    "sourceSequenceNumber": 13,
    "city": "臺北市",
    "cameraLocationCodeRaw": "014-建國快信義",
    "cameraLocationCode": "014",
    "locationDescription": "建國快信義",
    "longitude": 121.53765,
    "latitude": 25.03347,
    "coordinateStatus": "valid",
    "source": "臺北市CCTV設施",
    "sourceAgency": "臺北市政府交通局交通管制工程處"
  },
  {
    "id": "traffic-cctv-14",
    "layer": "traffic_cctv",
    "sourceSequenceNumber": 14,
    "city": "臺北市",
    "cameraLocationCodeRaw": "015-建國快仁愛",
    "cameraLocationCode": "015",
    "locationDescription": "建國快仁愛",
    "longitude": 121.53798,
    "latitude": 25.03807,
    "coordinateStatus": "valid",
    "source": "臺北市CCTV設施",
    "sourceAgency": "臺北市政府交通局交通管制工程處"
  },
  {
    "id": "traffic-cctv-15",
    "layer": "traffic_cctv",
    "sourceSequenceNumber": 15,
    "city": "臺北市",
    "cameraLocationCodeRaw": "016-建國快忠孝",
    "cameraLocationCode": "016",
    "locationDescription": "建國快忠孝",
    "longitude": 121.53701,
    "latitude": 25.0416,
    "coordinateStatus": "valid",
    "source": "臺北市CCTV設施",
    "sourceAgency": "臺北市政府交通局交通管制工程處"
  },
  {
    "id": "traffic-cctv-16",
    "layer": "traffic_cctv",
    "sourceSequenceNumber": 16,
    "city": "臺北市",
    "cameraLocationCodeRaw": "017-建國快長安",
    "cameraLocationCode": "017",
    "locationDescription": "建國快長安",
    "longitude": 121.53684,
    "latitude": 25.04848,
    "coordinateStatus": "valid",
    "source": "臺北市CCTV設施",
    "sourceAgency": "臺北市政府交通局交通管制工程處"
  },
  {
    "id": "traffic-cctv-17",
    "layer": "traffic_cctv",
    "sourceSequenceNumber": 17,
    "city": "臺北市",
    "cameraLocationCodeRaw": "018-建國快南京",
    "cameraLocationCode": "018",
    "locationDescription": "建國快南京",
    "longitude": 121.53661,
    "latitude": 25.05187,
    "coordinateStatus": "valid",
    "source": "臺北市CCTV設施",
    "sourceAgency": "臺北市政府交通局交通管制工程處"
  },
  {
    "id": "traffic-cctv-18",
    "layer": "traffic_cctv",
    "sourceSequenceNumber": 18,
    "city": "臺北市",
    "cameraLocationCodeRaw": "019-建國快民生",
    "cameraLocationCode": "019",
    "locationDescription": "建國快民生",
    "longitude": 121.53703,
    "latitude": 25.05801,
    "coordinateStatus": "valid",
    "source": "臺北市CCTV設施",
    "sourceAgency": "臺北市政府交通局交通管制工程處"
  },
  {
    "id": "traffic-cctv-19",
    "layer": "traffic_cctv",
    "sourceSequenceNumber": 19,
    "city": "臺北市",
    "cameraLocationCodeRaw": "020-建國快民權",
    "cameraLocationCode": "020",
    "locationDescription": "建國快民權",
    "longitude": 121.53692,
    "latitude": 25.06228,
    "coordinateStatus": "valid",
    "source": "臺北市CCTV設施",
    "sourceAgency": "臺北市政府交通局交通管制工程處"
  },
  {
    "id": "traffic-cctv-20",
    "layer": "traffic_cctv",
    "sourceSequenceNumber": 20,
    "city": "臺北市",
    "cameraLocationCodeRaw": "021-民族松江",
    "cameraLocationCode": "021",
    "locationDescription": "民族松江",
    "longitude": 121.53295,
    "latitude": 25.06831,
    "coordinateStatus": "valid",
    "source": "臺北市CCTV設施",
    "sourceAgency": "臺北市政府交通局交通管制工程處"
  },
  {
    "id": "traffic-cctv-21",
    "layer": "traffic_cctv",
    "sourceSequenceNumber": 21,
    "city": "臺北市",
    "cameraLocationCodeRaw": "022-建國快圓山匝道",
    "cameraLocationCode": "022",
    "locationDescription": "建國快圓山匝道",
    "longitude": 121.5336,
    "latitude": 25.07116,
    "coordinateStatus": "valid",
    "source": "臺北市CCTV設施",
    "sourceAgency": "臺北市政府交通局交通管制工程處"
  },
  {
    "id": "traffic-cctv-22",
    "layer": "traffic_cctv",
    "sourceSequenceNumber": 22,
    "city": "臺北市",
    "cameraLocationCodeRaw": "023-水源快永福橋",
    "cameraLocationCode": "023",
    "locationDescription": "水源快永福橋",
    "longitude": 121.52814,
    "latitude": 25.01201,
    "coordinateStatus": "valid",
    "source": "臺北市CCTV設施",
    "sourceAgency": "臺北市政府交通局交通管制工程處"
  },
  {
    "id": "traffic-cctv-23",
    "layer": "traffic_cctv",
    "sourceSequenceNumber": 23,
    "city": "臺北市",
    "cameraLocationCodeRaw": "024-水源快福和橋",
    "cameraLocationCode": "024",
    "locationDescription": "水源快福和橋",
    "longitude": 121.53241,
    "latitude": 25.00863,
    "coordinateStatus": "valid",
    "source": "臺北市CCTV設施",
    "sourceAgency": "臺北市政府交通局交通管制工程處"
  },
  {
    "id": "traffic-cctv-24",
    "layer": "traffic_cctv",
    "sourceSequenceNumber": 24,
    "city": "臺北市",
    "cameraLocationCodeRaw": "025-基隆快羅斯",
    "cameraLocationCode": "025",
    "locationDescription": "基隆快羅斯",
    "longitude": 121.53717,
    "latitude": 25.01134,
    "coordinateStatus": "valid",
    "source": "臺北市CCTV設施",
    "sourceAgency": "臺北市政府交通局交通管制工程處"
  },
  {
    "id": "traffic-cctv-25",
    "layer": "traffic_cctv",
    "sourceSequenceNumber": 25,
    "city": "臺北市",
    "cameraLocationCodeRaw": "026-基隆快辛亥",
    "cameraLocationCode": "026",
    "locationDescription": "基隆快辛亥",
    "longitude": 121.5468,
    "latitude": 25.019,
    "coordinateStatus": "valid",
    "source": "臺北市CCTV設施",
    "sourceAgency": "臺北市政府交通局交通管制工程處"
  },
  {
    "id": "traffic-cctv-26",
    "layer": "traffic_cctv",
    "sourceSequenceNumber": 26,
    "city": "臺北市",
    "cameraLocationCodeRaw": "027-市民快環河",
    "cameraLocationCode": "027",
    "locationDescription": "市民快環河",
    "longitude": 121.50691,
    "latitude": 25.05081,
    "coordinateStatus": "valid",
    "source": "臺北市CCTV設施",
    "sourceAgency": "臺北市政府交通局交通管制工程處"
  },
  {
    "id": "traffic-cctv-27",
    "layer": "traffic_cctv",
    "sourceSequenceNumber": 27,
    "city": "臺北市",
    "cameraLocationCodeRaw": "028-市民快中山",
    "cameraLocationCode": "028",
    "locationDescription": "市民快中山",
    "longitude": 121.52089,
    "latitude": 25.04812,
    "coordinateStatus": "valid",
    "source": "臺北市CCTV設施",
    "sourceAgency": "臺北市政府交通局交通管制工程處"
  },
  {
    "id": "traffic-cctv-28",
    "layer": "traffic_cctv",
    "sourceSequenceNumber": 28,
    "city": "臺北市",
    "cameraLocationCodeRaw": "029-市民快敦化",
    "cameraLocationCode": "029",
    "locationDescription": "市民快敦化",
    "longitude": 121.54896,
    "latitude": 25.04494,
    "coordinateStatus": "valid",
    "source": "臺北市CCTV設施",
    "sourceAgency": "臺北市政府交通局交通管制工程處"
  },
  {
    "id": "traffic-cctv-29",
    "layer": "traffic_cctv",
    "sourceSequenceNumber": 29,
    "city": "臺北市",
    "cameraLocationCodeRaw": "030-市民快松江",
    "cameraLocationCode": "030",
    "locationDescription": "市民快松江",
    "longitude": 121.53274,
    "latitude": 25.04531,
    "coordinateStatus": "valid",
    "source": "臺北市CCTV設施",
    "sourceAgency": "臺北市政府交通局交通管制工程處"
  },
  {
    "id": "traffic-cctv-30",
    "layer": "traffic_cctv",
    "sourceSequenceNumber": 30,
    "city": "臺北市",
    "cameraLocationCodeRaw": "031-市民快永吉",
    "cameraLocationCode": "031",
    "locationDescription": "市民快永吉",
    "longitude": 121.56501,
    "latitude": 25.04468,
    "coordinateStatus": "valid",
    "source": "臺北市CCTV設施",
    "sourceAgency": "臺北市政府交通局交通管制工程處"
  },
  {
    "id": "traffic-cctv-31",
    "layer": "traffic_cctv",
    "sourceSequenceNumber": 31,
    "city": "臺北市",
    "cameraLocationCodeRaw": "032-市民快重慶匝道",
    "cameraLocationCode": "032",
    "locationDescription": "市民快重慶匝道",
    "longitude": 121.51298,
    "latitude": 25.04949,
    "coordinateStatus": "valid",
    "source": "臺北市CCTV設施",
    "sourceAgency": "臺北市政府交通局交通管制工程處"
  },
  {
    "id": "traffic-cctv-32",
    "layer": "traffic_cctv",
    "sourceSequenceNumber": 32,
    "city": "臺北市",
    "cameraLocationCodeRaw": "033-市民快新生匝道",
    "cameraLocationCode": "033",
    "locationDescription": "市民快新生匝道",
    "longitude": 121.5302,
    "latitude": 25.04608,
    "coordinateStatus": "valid",
    "source": "臺北市CCTV設施",
    "sourceAgency": "臺北市政府交通局交通管制工程處"
  },
  {
    "id": "traffic-cctv-33",
    "layer": "traffic_cctv",
    "sourceSequenceNumber": 33,
    "city": "臺北市",
    "cameraLocationCodeRaw": "034-市民快建國北匝道",
    "cameraLocationCode": "034",
    "locationDescription": "市民快建國北匝道",
    "longitude": 121.53684,
    "latitude": 25.04472,
    "coordinateStatus": "valid",
    "source": "臺北市CCTV設施",
    "sourceAgency": "臺北市政府交通局交通管制工程處"
  },
  {
    "id": "traffic-cctv-34",
    "layer": "traffic_cctv",
    "sourceSequenceNumber": 34,
    "city": "臺北市",
    "cameraLocationCodeRaw": "035-市民快光復匝道",
    "cameraLocationCode": "035",
    "locationDescription": "市民快光復匝道",
    "longitude": 121.55694,
    "latitude": 25.0449,
    "coordinateStatus": "valid",
    "source": "臺北市CCTV設施",
    "sourceAgency": "臺北市政府交通局交通管制工程處"
  },
  {
    "id": "traffic-cctv-35",
    "layer": "traffic_cctv",
    "sourceSequenceNumber": 35,
    "city": "臺北市",
    "cameraLocationCodeRaw": "036-市民快正氣橋上層",
    "cameraLocationCode": "036",
    "locationDescription": "市民快正氣橋上層",
    "longitude": 121.56735,
    "latitude": 25.04581,
    "coordinateStatus": "valid",
    "source": "臺北市CCTV設施",
    "sourceAgency": "臺北市政府交通局交通管制工程處"
  },
  {
    "id": "traffic-cctv-36",
    "layer": "traffic_cctv",
    "sourceSequenceNumber": 36,
    "city": "臺北市",
    "cameraLocationCodeRaw": "037-市民快麥帥一橋",
    "cameraLocationCode": "037",
    "locationDescription": "市民快麥帥一橋",
    "longitude": 121.57072,
    "latitude": 25.05122,
    "coordinateStatus": "valid",
    "source": "臺北市CCTV設施",
    "sourceAgency": "臺北市政府交通局交通管制工程處"
  },
  {
    "id": "traffic-cctv-37",
    "layer": "traffic_cctv",
    "sourceSequenceNumber": 37,
    "city": "臺北市",
    "cameraLocationCodeRaw": "038-基隆永吉",
    "cameraLocationCode": "038",
    "locationDescription": "基隆永吉",
    "longitude": 121.56691,
    "latitude": 25.04553,
    "coordinateStatus": "valid",
    "source": "臺北市CCTV設施",
    "sourceAgency": "臺北市政府交通局交通管制工程處"
  },
  {
    "id": "traffic-cctv-38",
    "layer": "traffic_cctv",
    "sourceSequenceNumber": 38,
    "city": "臺北市",
    "cameraLocationCodeRaw": "039-環河民生",
    "cameraLocationCode": "039",
    "locationDescription": "環河民生",
    "longitude": 121.50836,
    "latitude": 25.05676,
    "coordinateStatus": "valid",
    "source": "臺北市CCTV設施",
    "sourceAgency": "臺北市政府交通局交通管制工程處"
  },
  {
    "id": "traffic-cctv-39",
    "layer": "traffic_cctv",
    "sourceSequenceNumber": 39,
    "city": "臺北市",
    "cameraLocationCodeRaw": "040-民權西台北橋",
    "cameraLocationCode": "040",
    "locationDescription": "民權西台北橋",
    "longitude": 121.50877,
    "latitude": 25.06341,
    "coordinateStatus": "valid",
    "source": "臺北市CCTV設施",
    "sourceAgency": "臺北市政府交通局交通管制工程處"
  },
  {
    "id": "traffic-cctv-40",
    "layer": "traffic_cctv",
    "sourceSequenceNumber": 40,
    "city": "臺北市",
    "cameraLocationCodeRaw": "041-環河北敦煌",
    "cameraLocationCode": "041",
    "locationDescription": "環河北敦煌",
    "longitude": 121.50856,
    "latitude": 25.07613,
    "coordinateStatus": "valid",
    "source": "臺北市CCTV設施",
    "sourceAgency": "臺北市政府交通局交通管制工程處"
  },
  {
    "id": "traffic-cctv-41",
    "layer": "traffic_cctv",
    "sourceSequenceNumber": 41,
    "city": "臺北市",
    "cameraLocationCodeRaw": "042-承德中正",
    "cameraLocationCode": "042",
    "locationDescription": "承德中正",
    "longitude": 121.516,
    "latitude": 25.091,
    "coordinateStatus": "valid",
    "source": "臺北市CCTV設施",
    "sourceAgency": "臺北市政府交通局交通管制工程處"
  },
  {
    "id": "traffic-cctv-42",
    "layer": "traffic_cctv",
    "sourceSequenceNumber": 42,
    "city": "臺北市",
    "cameraLocationCodeRaw": "043-重慶北交流道",
    "cameraLocationCode": "043",
    "locationDescription": "重慶北交流道",
    "longitude": 121.51304,
    "latitude": 25.08125,
    "coordinateStatus": "valid",
    "source": "臺北市CCTV設施",
    "sourceAgency": "臺北市政府交通局交通管制工程處"
  },
  {
    "id": "traffic-cctv-43",
    "layer": "traffic_cctv",
    "sourceSequenceNumber": 43,
    "city": "臺北市",
    "cameraLocationCodeRaw": "044-圓山中山橋",
    "cameraLocationCode": "044",
    "locationDescription": "圓山中山橋",
    "longitude": 121.52531,
    "latitude": 25.07628,
    "coordinateStatus": "valid",
    "source": "臺北市CCTV設施",
    "sourceAgency": "臺北市政府交通局交通管制工程處"
  },
  {
    "id": "traffic-cctv-44",
    "layer": "traffic_cctv",
    "sourceSequenceNumber": 44,
    "city": "臺北市",
    "cameraLocationCodeRaw": "045-大直橋",
    "cameraLocationCode": "045",
    "locationDescription": "大直橋",
    "longitude": 121.54469,
    "latitude": 25.07703,
    "coordinateStatus": "valid",
    "source": "臺北市CCTV設施",
    "sourceAgency": "臺北市政府交通局交通管制工程處"
  },
  {
    "id": "traffic-cctv-45",
    "layer": "traffic_cctv",
    "sourceSequenceNumber": 45,
    "city": "臺北市",
    "cameraLocationCodeRaw": "046-民權撫遠",
    "cameraLocationCode": "046",
    "locationDescription": "民權撫遠",
    "longitude": 121.56593,
    "latitude": 25.06331,
    "coordinateStatus": "valid",
    "source": "臺北市CCTV設施",
    "sourceAgency": "臺北市政府交通局交通管制工程處"
  },
  {
    "id": "traffic-cctv-46",
    "layer": "traffic_cctv",
    "sourceSequenceNumber": 46,
    "city": "臺北市",
    "cameraLocationCodeRaw": "047-麥帥二橋松山抽水站",
    "cameraLocationCode": "047",
    "locationDescription": "麥帥二橋松山抽水站",
    "longitude": 121.57016,
    "latitude": 25.05473,
    "coordinateStatus": "valid",
    "source": "臺北市CCTV設施",
    "sourceAgency": "臺北市政府交通局交通管制工程處"
  },
  {
    "id": "traffic-cctv-47",
    "layer": "traffic_cctv",
    "sourceSequenceNumber": 47,
    "city": "臺北市",
    "cameraLocationCodeRaw": "048-中正重陽橋",
    "cameraLocationCode": "048",
    "locationDescription": "中正重陽橋",
    "longitude": 121.5058,
    "latitude": 25.08569,
    "coordinateStatus": "valid",
    "source": "臺北市CCTV設施",
    "sourceAgency": "臺北市政府交通局交通管制工程處"
  },
  {
    "id": "traffic-cctv-48",
    "layer": "traffic_cctv",
    "sourceSequenceNumber": 48,
    "city": "臺北市",
    "cameraLocationCodeRaw": "049-環東快堤頂匝道",
    "cameraLocationCode": "049",
    "locationDescription": "環東快堤頂匝道",
    "longitude": 121.5778,
    "latitude": 25.05489,
    "coordinateStatus": "valid",
    "source": "臺北市CCTV設施",
    "sourceAgency": "臺北市政府交通局交通管制工程處"
  },
  {
    "id": "traffic-cctv-49",
    "layer": "traffic_cctv",
    "sourceSequenceNumber": 49,
    "city": "臺北市",
    "cameraLocationCodeRaw": "050-環東快舊宗匝道",
    "cameraLocationCode": "050",
    "locationDescription": "環東快舊宗匝道",
    "longitude": 121.58426,
    "latitude": 25.0585,
    "coordinateStatus": "valid",
    "source": "臺北市CCTV設施",
    "sourceAgency": "臺北市政府交通局交通管制工程處"
  },
  {
    "id": "traffic-cctv-50",
    "layer": "traffic_cctv",
    "sourceSequenceNumber": 50,
    "city": "臺北市",
    "cameraLocationCodeRaw": "051-環東快成功路",
    "cameraLocationCode": "051",
    "locationDescription": "環東快成功路",
    "longitude": 121.59103,
    "latitude": 25.0611,
    "coordinateStatus": "valid",
    "source": "臺北市CCTV設施",
    "sourceAgency": "臺北市政府交通局交通管制工程處"
  },
  {
    "id": "traffic-cctv-51",
    "layer": "traffic_cctv",
    "sourceSequenceNumber": 51,
    "city": "臺北市",
    "cameraLocationCodeRaw": "052-環東快出城往東",
    "cameraLocationCode": "052",
    "locationDescription": "環東快出城往東",
    "longitude": 121.6003,
    "latitude": 25.05835,
    "coordinateStatus": "valid",
    "source": "臺北市CCTV設施",
    "sourceAgency": "臺北市政府交通局交通管制工程處"
  },
  {
    "id": "traffic-cctv-52",
    "layer": "traffic_cctv",
    "sourceSequenceNumber": 52,
    "city": "臺北市",
    "cameraLocationCodeRaw": "053-環東麥帥二橋往堤頂",
    "cameraLocationCode": "053",
    "locationDescription": "環東麥帥二橋往堤頂",
    "longitude": 121.57363,
    "latitude": 25.05831,
    "coordinateStatus": "valid",
    "source": "臺北市CCTV設施",
    "sourceAgency": "臺北市政府交通局交通管制工程處"
  },
  {
    "id": "traffic-cctv-53",
    "layer": "traffic_cctv",
    "sourceSequenceNumber": 53,
    "city": "臺北市",
    "cameraLocationCodeRaw": "054-環東快成功橋",
    "cameraLocationCode": "054",
    "locationDescription": "環東快成功橋",
    "longitude": 121.59171,
    "latitude": 25.06018,
    "coordinateStatus": "valid",
    "source": "臺北市CCTV設施",
    "sourceAgency": "臺北市政府交通局交通管制工程處"
  },
  {
    "id": "traffic-cctv-54",
    "layer": "traffic_cctv",
    "sourceSequenceNumber": 54,
    "city": "臺北市",
    "cameraLocationCodeRaw": "055-環東快進城基河三期國宅",
    "cameraLocationCode": "055",
    "locationDescription": "環東快進城基河三期國宅",
    "longitude": 121.60127,
    "latitude": 25.05843,
    "coordinateStatus": "valid",
    "source": "臺北市CCTV設施",
    "sourceAgency": "臺北市政府交通局交通管制工程處"
  },
  {
    "id": "traffic-cctv-55",
    "layer": "traffic_cctv",
    "sourceSequenceNumber": 55,
    "city": "臺北市",
    "cameraLocationCodeRaw": "056-環東快進城南湖大橋",
    "cameraLocationCode": "056",
    "locationDescription": "環東快進城南湖大橋",
    "longitude": 121.61118,
    "latitude": 25.06134,
    "coordinateStatus": "valid",
    "source": "臺北市CCTV設施",
    "sourceAgency": "臺北市政府交通局交通管制工程處"
  },
  {
    "id": "traffic-cctv-56",
    "layer": "traffic_cctv",
    "sourceSequenceNumber": 56,
    "city": "臺北市",
    "cameraLocationCodeRaw": "057-環東快經貿一路匝道",
    "cameraLocationCode": "057",
    "locationDescription": "環東快經貿一路匝道",
    "longitude": 121.6162,
    "latitude": 25.0629,
    "coordinateStatus": "valid",
    "source": "臺北市CCTV設施",
    "sourceAgency": "臺北市政府交通局交通管制工程處"
  },
  {
    "id": "traffic-cctv-57",
    "layer": "traffic_cctv",
    "sourceSequenceNumber": 57,
    "city": "臺北市",
    "cameraLocationCodeRaw": "058-三重南港",
    "cameraLocationCode": "058",
    "locationDescription": "三重南港",
    "longitude": 121.61406,
    "latitude": 25.05497,
    "coordinateStatus": "valid",
    "source": "臺北市CCTV設施",
    "sourceAgency": "臺北市政府交通局交通管制工程處"
  },
  {
    "id": "traffic-cctv-58",
    "layer": "traffic_cctv",
    "sourceSequenceNumber": 58,
    "city": "臺北市",
    "cameraLocationCodeRaw": "059-經貿二南港",
    "cameraLocationCode": "059",
    "locationDescription": "經貿二南港",
    "longitude": 121.61664,
    "latitude": 25.0551,
    "coordinateStatus": "valid",
    "source": "臺北市CCTV設施",
    "sourceAgency": "臺北市政府交通局交通管制工程處"
  },
  {
    "id": "traffic-cctv-59",
    "layer": "traffic_cctv",
    "sourceSequenceNumber": 59,
    "city": "臺北市",
    "cameraLocationCodeRaw": "060-環東匝道",
    "cameraLocationCode": "060",
    "locationDescription": "環東匝道",
    "longitude": 121.61936,
    "latitude": 25.0594,
    "coordinateStatus": "valid",
    "source": "臺北市CCTV設施",
    "sourceAgency": "臺北市政府交通局交通管制工程處"
  },
  {
    "id": "traffic-cctv-60",
    "layer": "traffic_cctv",
    "sourceSequenceNumber": 60,
    "city": "臺北市",
    "cameraLocationCodeRaw": "061-南湖大橋三重路",
    "cameraLocationCode": "061",
    "locationDescription": "南湖大橋三重路",
    "longitude": 121.61449,
    "latitude": 25.0606,
    "coordinateStatus": "valid",
    "source": "臺北市CCTV設施",
    "sourceAgency": "臺北市政府交通局交通管制工程處"
  },
  {
    "id": "traffic-cctv-61",
    "layer": "traffic_cctv",
    "sourceSequenceNumber": 61,
    "city": "臺北市",
    "cameraLocationCodeRaw": "063-洲美快道福國匝道",
    "cameraLocationCode": "063",
    "locationDescription": "洲美快道福國匝道",
    "longitude": 121.49914,
    "latitude": 25.10125,
    "coordinateStatus": "valid",
    "source": "臺北市CCTV設施",
    "sourceAgency": "臺北市政府交通局交通管制工程處"
  },
  {
    "id": "traffic-cctv-62",
    "layer": "traffic_cctv",
    "sourceSequenceNumber": 62,
    "city": "臺北市",
    "cameraLocationCodeRaw": "064-洲美快13號道路匝道前",
    "cameraLocationCode": "064",
    "locationDescription": "洲美快13號道路匝道前",
    "longitude": 121.49911,
    "latitude": 25.10614,
    "coordinateStatus": "valid",
    "source": "臺北市CCTV設施",
    "sourceAgency": "臺北市政府交通局交通管制工程處"
  },
  {
    "id": "traffic-cctv-63",
    "layer": "traffic_cctv",
    "sourceSequenceNumber": 63,
    "city": "臺北市",
    "cameraLocationCodeRaw": "065-洲美快焚化爐前",
    "cameraLocationCode": "065",
    "locationDescription": "洲美快焚化爐前",
    "longitude": 121.49866,
    "latitude": 25.10812,
    "coordinateStatus": "valid",
    "source": "臺北市CCTV設施",
    "sourceAgency": "臺北市政府交通局交通管制工程處"
  },
  {
    "id": "traffic-cctv-64",
    "layer": "traffic_cctv",
    "sourceSequenceNumber": 64,
    "city": "臺北市",
    "cameraLocationCodeRaw": "066-洲美快13號道路",
    "cameraLocationCode": "066",
    "locationDescription": "洲美快13號道路",
    "longitude": 121.49866,
    "latitude": 25.11204,
    "coordinateStatus": "valid",
    "source": "臺北市CCTV設施",
    "sourceAgency": "臺北市政府交通局交通管制工程處"
  },
  {
    "id": "traffic-cctv-65",
    "layer": "traffic_cctv",
    "sourceSequenceNumber": 65,
    "city": "臺北市",
    "cameraLocationCodeRaw": "067-洲美快大業路匝道",
    "cameraLocationCode": "067",
    "locationDescription": "洲美快大業路匝道",
    "longitude": 121.49969,
    "latitude": 25.11696,
    "coordinateStatus": "valid",
    "source": "臺北市CCTV設施",
    "sourceAgency": "臺北市政府交通局交通管制工程處"
  },
  {
    "id": "traffic-cctv-66",
    "layer": "traffic_cctv",
    "sourceSequenceNumber": 66,
    "city": "臺北市",
    "cameraLocationCodeRaw": "068-大業大度",
    "cameraLocationCode": "068",
    "locationDescription": "大業大度",
    "longitude": 121.49967,
    "latitude": 25.12114,
    "coordinateStatus": "valid",
    "source": "臺北市CCTV設施",
    "sourceAgency": "臺北市政府交通局交通管制工程處"
  },
  {
    "id": "traffic-cctv-67",
    "layer": "traffic_cctv",
    "sourceSequenceNumber": 67,
    "city": "臺北市",
    "cameraLocationCodeRaw": "069-環河北中正",
    "cameraLocationCode": "069",
    "locationDescription": "環河北中正",
    "longitude": 121.50554,
    "latitude": 25.08572,
    "coordinateStatus": "valid",
    "source": "臺北市CCTV設施",
    "sourceAgency": "臺北市政府交通局交通管制工程處"
  },
  {
    "id": "traffic-cctv-68",
    "layer": "traffic_cctv",
    "sourceSequenceNumber": 68,
    "city": "臺北市",
    "cameraLocationCodeRaw": "070-延平社中",
    "cameraLocationCode": "070",
    "locationDescription": "延平社中",
    "longitude": 121.50104,
    "latitude": 25.0905,
    "coordinateStatus": "valid",
    "source": "臺北市CCTV設施",
    "sourceAgency": "臺北市政府交通局交通管制工程處"
  },
  {
    "id": "traffic-cctv-69",
    "layer": "traffic_cctv",
    "sourceSequenceNumber": 69,
    "city": "臺北市",
    "cameraLocationCodeRaw": "071-延平北通河西",
    "cameraLocationCode": "071",
    "locationDescription": "延平北通河西",
    "longitude": 121.49755,
    "latitude": 25.09383,
    "coordinateStatus": "valid",
    "source": "臺北市CCTV設施",
    "sourceAgency": "臺北市政府交通局交通管制工程處"
  },
  {
    "id": "traffic-cctv-70",
    "layer": "traffic_cctv",
    "sourceSequenceNumber": 70,
    "city": "臺北市",
    "cameraLocationCodeRaw": "072-延平北通河西(堤防)",
    "cameraLocationCode": "072",
    "locationDescription": "延平北通河西(堤防)",
    "longitude": 121.49735,
    "latitude": 25.09438,
    "coordinateStatus": "valid",
    "source": "臺北市CCTV設施",
    "sourceAgency": "臺北市政府交通局交通管制工程處"
  },
  {
    "id": "traffic-cctv-71",
    "layer": "traffic_cctv",
    "sourceSequenceNumber": 71,
    "city": "臺北市",
    "cameraLocationCodeRaw": "073-信義快萬芳交流道",
    "cameraLocationCode": "073",
    "locationDescription": "信義快萬芳交流道",
    "longitude": 121.58038,
    "latitude": 25.00424,
    "coordinateStatus": "valid",
    "source": "臺北市CCTV設施",
    "sourceAgency": "臺北市政府交通局交通管制工程處"
  },
  {
    "id": "traffic-cctv-72",
    "layer": "traffic_cctv",
    "sourceSequenceNumber": 72,
    "city": "臺北市",
    "cameraLocationCodeRaw": "074-信義松德",
    "cameraLocationCode": "074",
    "locationDescription": "信義松德",
    "longitude": 121.57414,
    "latitude": 25.03312,
    "coordinateStatus": "valid",
    "source": "臺北市CCTV設施",
    "sourceAgency": "臺北市政府交通局交通管制工程處"
  },
  {
    "id": "traffic-cctv-73",
    "layer": "traffic_cctv",
    "sourceSequenceNumber": 73,
    "city": "臺北市",
    "cameraLocationCodeRaw": "075-信義松仁",
    "cameraLocationCode": "075",
    "locationDescription": "信義松仁",
    "longitude": 121.56818,
    "latitude": 25.03261,
    "coordinateStatus": "valid",
    "source": "臺北市CCTV設施",
    "sourceAgency": "臺北市政府交通局交通管制工程處"
  },
  {
    "id": "traffic-cctv-74",
    "layer": "traffic_cctv",
    "sourceSequenceNumber": 74,
    "city": "臺北市",
    "cameraLocationCodeRaw": "076-新生高圓山",
    "cameraLocationCode": "076",
    "locationDescription": "新生高圓山",
    "longitude": 121.52565,
    "latitude": 25.07435,
    "coordinateStatus": "valid",
    "source": "臺北市CCTV設施",
    "sourceAgency": "臺北市政府交通局交通管制工程處"
  },
  {
    "id": "traffic-cctv-75",
    "layer": "traffic_cctv",
    "sourceSequenceNumber": 75,
    "city": "臺北市",
    "cameraLocationCodeRaw": "077-環河快詔安街",
    "cameraLocationCode": "077",
    "locationDescription": "環河快詔安街",
    "longitude": 121.51461,
    "latitude": 25.024,
    "coordinateStatus": "valid",
    "source": "臺北市CCTV設施",
    "sourceAgency": "臺北市政府交通局交通管制工程處"
  },
  {
    "id": "traffic-cctv-76",
    "layer": "traffic_cctv",
    "sourceSequenceNumber": 76,
    "city": "臺北市",
    "cameraLocationCodeRaw": "078-環河快泉州街",
    "cameraLocationCode": "078",
    "locationDescription": "環河快泉州街",
    "longitude": 121.51218,
    "latitude": 25.02408,
    "coordinateStatus": "valid",
    "source": "臺北市CCTV設施",
    "sourceAgency": "臺北市政府交通局交通管制工程處"
  },
  {
    "id": "traffic-cctv-77",
    "layer": "traffic_cctv",
    "sourceSequenceNumber": 77,
    "city": "臺北市",
    "cameraLocationCodeRaw": "079-復興辛亥",
    "cameraLocationCode": "079",
    "locationDescription": "復興辛亥",
    "longitude": 121.5433,
    "latitude": 25.02157,
    "coordinateStatus": "valid",
    "source": "臺北市CCTV設施",
    "sourceAgency": "臺北市政府交通局交通管制工程處"
  },
  {
    "id": "traffic-cctv-78",
    "layer": "traffic_cctv",
    "sourceSequenceNumber": 78,
    "city": "臺北市",
    "cameraLocationCodeRaw": "080-環河快貴陽匝道",
    "cameraLocationCode": "080",
    "locationDescription": "環河快貴陽匝道",
    "longitude": 121.29441,
    "latitude": 25.21892,
    "coordinateStatus": "outlier",
    "source": "臺北市CCTV設施",
    "sourceAgency": "臺北市政府交通局交通管制工程處"
  },
  {
    "id": "traffic-cctv-79",
    "layer": "traffic_cctv",
    "sourceSequenceNumber": 79,
    "city": "臺北市",
    "cameraLocationCodeRaw": "081-環河快萬板大橋",
    "cameraLocationCode": "081",
    "locationDescription": "環河快萬板大橋",
    "longitude": 121.29173,
    "latitude": 25.14905,
    "coordinateStatus": "outlier",
    "source": "臺北市CCTV設施",
    "sourceAgency": "臺北市政府交通局交通管制工程處"
  },
  {
    "id": "traffic-cctv-80",
    "layer": "traffic_cctv",
    "sourceSequenceNumber": 80,
    "city": "臺北市",
    "cameraLocationCodeRaw": "082-環河快華翠大橋",
    "cameraLocationCode": "082",
    "locationDescription": "環河快華翠大橋",
    "longitude": 121.29214,
    "latitude": 25.13923,
    "coordinateStatus": "outlier",
    "source": "臺北市CCTV設施",
    "sourceAgency": "臺北市政府交通局交通管制工程處"
  },
  {
    "id": "traffic-cctv-81",
    "layer": "traffic_cctv",
    "sourceSequenceNumber": 81,
    "city": "臺北市",
    "cameraLocationCodeRaw": "083-環河快青年路口",
    "cameraLocationCode": "083",
    "locationDescription": "環河快青年路口",
    "longitude": 121.30149,
    "latitude": 25.11113,
    "coordinateStatus": "outlier",
    "source": "臺北市CCTV設施",
    "sourceAgency": "臺北市政府交通局交通管制工程處"
  },
  {
    "id": "traffic-cctv-82",
    "layer": "traffic_cctv",
    "sourceSequenceNumber": 82,
    "city": "臺北市",
    "cameraLocationCodeRaw": "084-水源快溪州街口",
    "cameraLocationCode": "084",
    "locationDescription": "水源快溪州街口",
    "longitude": 121.5342,
    "latitude": 25.00594,
    "coordinateStatus": "valid",
    "source": "臺北市CCTV設施",
    "sourceAgency": "臺北市政府交通局交通管制工程處"
  },
  {
    "id": "traffic-cctv-83",
    "layer": "traffic_cctv",
    "sourceSequenceNumber": 83,
    "city": "臺北市",
    "cameraLocationCodeRaw": "085-水源快景美出口匝道",
    "cameraLocationCode": "085",
    "locationDescription": "水源快景美出口匝道",
    "longitude": 121.53564,
    "latitude": 24.99786,
    "coordinateStatus": "valid",
    "source": "臺北市CCTV設施",
    "sourceAgency": "臺北市政府交通局交通管制工程處"
  },
  {
    "id": "traffic-cctv-84",
    "layer": "traffic_cctv",
    "sourceSequenceNumber": 84,
    "city": "臺北市",
    "cameraLocationCodeRaw": "086-水源快景美入口匝道",
    "cameraLocationCode": "086",
    "locationDescription": "水源快景美入口匝道",
    "longitude": 121.53529,
    "latitude": 25.00006,
    "coordinateStatus": "valid",
    "source": "臺北市CCTV設施",
    "sourceAgency": "臺北市政府交通局交通管制工程處"
  },
  {
    "id": "traffic-cctv-85",
    "layer": "traffic_cctv",
    "sourceSequenceNumber": 85,
    "city": "臺北市",
    "cameraLocationCodeRaw": "087-基隆快樂業街口",
    "cameraLocationCode": "087",
    "locationDescription": "基隆快樂業街口",
    "longitude": 121.55021,
    "latitude": 25.02227,
    "coordinateStatus": "valid",
    "source": "臺北市CCTV設施",
    "sourceAgency": "臺北市政府交通局交通管制工程處"
  },
  {
    "id": "traffic-cctv-86",
    "layer": "traffic_cctv",
    "sourceSequenceNumber": 86,
    "city": "臺北市",
    "cameraLocationCodeRaw": "088-基隆快敦化南路",
    "cameraLocationCode": "088",
    "locationDescription": "基隆快敦化南路",
    "longitude": 121.54863,
    "latitude": 25.02106,
    "coordinateStatus": "valid",
    "source": "臺北市CCTV設施",
    "sourceAgency": "臺北市政府交通局交通管制工程處"
  },
  {
    "id": "traffic-cctv-87",
    "layer": "traffic_cctv",
    "sourceSequenceNumber": 87,
    "city": "臺北市",
    "cameraLocationCodeRaw": "089-基隆快辛亥出口匝道",
    "cameraLocationCode": "089",
    "locationDescription": "基隆快辛亥出口匝道",
    "longitude": 121.54171,
    "latitude": 25.01487,
    "coordinateStatus": "valid",
    "source": "臺北市CCTV設施",
    "sourceAgency": "臺北市政府交通局交通管制工程處"
  },
  {
    "id": "traffic-cctv-88",
    "layer": "traffic_cctv",
    "sourceSequenceNumber": 88,
    "city": "臺北市",
    "cameraLocationCodeRaw": "090-建國快松江",
    "cameraLocationCode": "090",
    "locationDescription": "建國快松江",
    "longitude": 121.53398,
    "latitude": 25.06733,
    "coordinateStatus": "valid",
    "source": "臺北市CCTV設施",
    "sourceAgency": "臺北市政府交通局交通管制工程處"
  },
  {
    "id": "traffic-cctv-89",
    "layer": "traffic_cctv",
    "sourceSequenceNumber": 89,
    "city": "臺北市",
    "cameraLocationCodeRaw": "091-中山北安",
    "cameraLocationCode": "091",
    "locationDescription": "中山北安",
    "longitude": 121.5268,
    "latitude": 25.07596,
    "coordinateStatus": "valid",
    "source": "臺北市CCTV設施",
    "sourceAgency": "臺北市政府交通局交通管制工程處"
  },
  {
    "id": "traffic-cctv-90",
    "layer": "traffic_cctv",
    "sourceSequenceNumber": 90,
    "city": "臺北市",
    "cameraLocationCodeRaw": "092-復北隧道南口-民族復興",
    "cameraLocationCode": "092",
    "locationDescription": "復北隧道南口-民族復興",
    "longitude": 121.54437,
    "latitude": 25.06659,
    "coordinateStatus": "valid",
    "source": "臺北市CCTV設施",
    "sourceAgency": "臺北市政府交通局交通管制工程處"
  },
  {
    "id": "traffic-cctv-91",
    "layer": "traffic_cctv",
    "sourceSequenceNumber": 91,
    "city": "臺北市",
    "cameraLocationCodeRaw": "093-復北隧道北向0K+500M",
    "cameraLocationCode": "093",
    "locationDescription": "復北隧道北向0K+500M",
    "longitude": 121.54436,
    "latitude": 25.06731,
    "coordinateStatus": "valid",
    "source": "臺北市CCTV設施",
    "sourceAgency": "臺北市政府交通局交通管制工程處"
  },
  {
    "id": "traffic-cctv-92",
    "layer": "traffic_cctv",
    "sourceSequenceNumber": 92,
    "city": "臺北市",
    "cameraLocationCodeRaw": "094-復北隧道北向0K+623M",
    "cameraLocationCode": "094",
    "locationDescription": "復北隧道北向0K+623M",
    "longitude": 121.54443,
    "latitude": 25.06968,
    "coordinateStatus": "valid",
    "source": "臺北市CCTV設施",
    "sourceAgency": "臺北市政府交通局交通管制工程處"
  },
  {
    "id": "traffic-cctv-93",
    "layer": "traffic_cctv",
    "sourceSequenceNumber": 93,
    "city": "臺北市",
    "cameraLocationCodeRaw": "095-復北隧道北向0K+750M",
    "cameraLocationCode": "095",
    "locationDescription": "復北隧道北向0K+750M",
    "longitude": 121.54432,
    "latitude": 25.06955,
    "coordinateStatus": "valid",
    "source": "臺北市CCTV設施",
    "sourceAgency": "臺北市政府交通局交通管制工程處"
  },
  {
    "id": "traffic-cctv-94",
    "layer": "traffic_cctv",
    "sourceSequenceNumber": 94,
    "city": "臺北市",
    "cameraLocationCodeRaw": "096-復北隧道北向0K+876M",
    "cameraLocationCode": "096",
    "locationDescription": "復北隧道北向0K+876M",
    "longitude": 121.54431,
    "latitude": 25.07061,
    "coordinateStatus": "valid",
    "source": "臺北市CCTV設施",
    "sourceAgency": "臺北市政府交通局交通管制工程處"
  },
  {
    "id": "traffic-cctv-95",
    "layer": "traffic_cctv",
    "sourceSequenceNumber": 95,
    "city": "臺北市",
    "cameraLocationCodeRaw": "097-復北隧道北口-濱江大直橋",
    "cameraLocationCode": "097",
    "locationDescription": "復北隧道北口-濱江大直橋",
    "longitude": 121.54417,
    "latitude": 25.07197,
    "coordinateStatus": "valid",
    "source": "臺北市CCTV設施",
    "sourceAgency": "臺北市政府交通局交通管制工程處"
  },
  {
    "id": "traffic-cctv-96",
    "layer": "traffic_cctv",
    "sourceSequenceNumber": 96,
    "city": "臺北市",
    "cameraLocationCodeRaw": "098-復北隧道南向0K+955M",
    "cameraLocationCode": "098",
    "locationDescription": "復北隧道南向0K+955M",
    "longitude": 121.54426,
    "latitude": 25.07127,
    "coordinateStatus": "valid",
    "source": "臺北市CCTV設施",
    "sourceAgency": "臺北市政府交通局交通管制工程處"
  },
  {
    "id": "traffic-cctv-97",
    "layer": "traffic_cctv",
    "sourceSequenceNumber": 97,
    "city": "臺北市",
    "cameraLocationCodeRaw": "099-復北隧道南向0K+830M",
    "cameraLocationCode": "099",
    "locationDescription": "復北隧道南向0K+830M",
    "longitude": 121.54425,
    "latitude": 25.07019,
    "coordinateStatus": "valid",
    "source": "臺北市CCTV設施",
    "sourceAgency": "臺北市政府交通局交通管制工程處"
  },
  {
    "id": "traffic-cctv-98",
    "layer": "traffic_cctv",
    "sourceSequenceNumber": 98,
    "city": "臺北市",
    "cameraLocationCodeRaw": "100-復北隧道南向0K+705M",
    "cameraLocationCode": "100",
    "locationDescription": "復北隧道南向0K+705M",
    "longitude": 121.54423,
    "latitude": 25.06915,
    "coordinateStatus": "valid",
    "source": "臺北市CCTV設施",
    "sourceAgency": "臺北市政府交通局交通管制工程處"
  },
  {
    "id": "traffic-cctv-99",
    "layer": "traffic_cctv",
    "sourceSequenceNumber": 99,
    "city": "臺北市",
    "cameraLocationCodeRaw": "101-復北隧道南向0K+580M",
    "cameraLocationCode": "101",
    "locationDescription": "復北隧道南向0K+580M",
    "longitude": 121.54425,
    "latitude": 25.06803,
    "coordinateStatus": "valid",
    "source": "臺北市CCTV設施",
    "sourceAgency": "臺北市政府交通局交通管制工程處"
  },
  {
    "id": "traffic-cctv-100",
    "layer": "traffic_cctv",
    "sourceSequenceNumber": 100,
    "city": "臺北市",
    "cameraLocationCodeRaw": "102-東湖隧道北向0K+295M",
    "cameraLocationCode": "102",
    "locationDescription": "東湖隧道北向0K+295M",
    "longitude": 121.60913,
    "latitude": 25.08091,
    "coordinateStatus": "valid",
    "source": "臺北市CCTV設施",
    "sourceAgency": "臺北市政府交通局交通管制工程處"
  },
  {
    "id": "traffic-cctv-101",
    "layer": "traffic_cctv",
    "sourceSequenceNumber": 101,
    "city": "臺北市",
    "cameraLocationCodeRaw": "103-東湖隧道南向0K+593M",
    "cameraLocationCode": "103",
    "locationDescription": "東湖隧道南向0K+593M",
    "longitude": 121.61074,
    "latitude": 25.07939,
    "coordinateStatus": "valid",
    "source": "臺北市CCTV設施",
    "sourceAgency": "臺北市政府交通局交通管制工程處"
  },
  {
    "id": "traffic-cctv-102",
    "layer": "traffic_cctv",
    "sourceSequenceNumber": 102,
    "city": "臺北市",
    "cameraLocationCodeRaw": "104-東湖隧道南向0K+770M",
    "cameraLocationCode": "104",
    "locationDescription": "東湖隧道南向0K+770M",
    "longitude": 121.61263,
    "latitude": 25.07823,
    "coordinateStatus": "valid",
    "source": "臺北市CCTV設施",
    "sourceAgency": "臺北市政府交通局交通管制工程處"
  },
  {
    "id": "traffic-cctv-103",
    "layer": "traffic_cctv",
    "sourceSequenceNumber": 103,
    "city": "臺北市",
    "cameraLocationCodeRaw": "105-東湖隧道北向1K+115M",
    "cameraLocationCode": "105",
    "locationDescription": "東湖隧道北向1K+115M",
    "longitude": 121.61605,
    "latitude": 25.07838,
    "coordinateStatus": "valid",
    "source": "臺北市CCTV設施",
    "sourceAgency": "臺北市政府交通局交通管制工程處"
  },
  {
    "id": "traffic-cctv-104",
    "layer": "traffic_cctv",
    "sourceSequenceNumber": 104,
    "city": "臺北市",
    "cameraLocationCodeRaw": "106-東湖隧道南向1K+245M",
    "cameraLocationCode": "106",
    "locationDescription": "東湖隧道南向1K+245M",
    "longitude": 121.61745,
    "latitude": 25.07861,
    "coordinateStatus": "valid",
    "source": "臺北市CCTV設施",
    "sourceAgency": "臺北市政府交通局交通管制工程處"
  },
  {
    "id": "traffic-cctv-105",
    "layer": "traffic_cctv",
    "sourceSequenceNumber": 105,
    "city": "臺北市",
    "cameraLocationCodeRaw": "107-東湖隧道北向1K+500M",
    "cameraLocationCode": "107",
    "locationDescription": "東湖隧道北向1K+500M",
    "longitude": 121.61963,
    "latitude": 25.07963,
    "coordinateStatus": "valid",
    "source": "臺北市CCTV設施",
    "sourceAgency": "臺北市政府交通局交通管制工程處"
  },
  {
    "id": "traffic-cctv-106",
    "layer": "traffic_cctv",
    "sourceSequenceNumber": 106,
    "city": "臺北市",
    "cameraLocationCodeRaw": "108-東湖隧道北向1K+777M",
    "cameraLocationCode": "108",
    "locationDescription": "東湖隧道北向1K+777M",
    "longitude": 121.62226,
    "latitude": 25.07864,
    "coordinateStatus": "valid",
    "source": "臺北市CCTV設施",
    "sourceAgency": "臺北市政府交通局交通管制工程處"
  },
  {
    "id": "traffic-cctv-107",
    "layer": "traffic_cctv",
    "sourceSequenceNumber": 107,
    "city": "臺北市",
    "cameraLocationCodeRaw": "109-內湖環山",
    "cameraLocationCode": "109",
    "locationDescription": "內湖環山",
    "longitude": 121.56531,
    "latitude": 25.08215,
    "coordinateStatus": "valid",
    "source": "臺北市CCTV設施",
    "sourceAgency": "臺北市政府交通局交通管制工程處"
  },
  {
    "id": "traffic-cctv-108",
    "layer": "traffic_cctv",
    "sourceSequenceNumber": 108,
    "city": "臺北市",
    "cameraLocationCodeRaw": "110-堤頂樂群一",
    "cameraLocationCode": "110",
    "locationDescription": "堤頂樂群一",
    "longitude": 121.57003,
    "latitude": 25.07732,
    "coordinateStatus": "valid",
    "source": "臺北市CCTV設施",
    "sourceAgency": "臺北市政府交通局交通管制工程處"
  },
  {
    "id": "traffic-cctv-109",
    "layer": "traffic_cctv",
    "sourceSequenceNumber": 109,
    "city": "臺北市",
    "cameraLocationCodeRaw": "111-堤頂基湖(東南角)",
    "cameraLocationCode": "111",
    "locationDescription": "堤頂基湖(東南角)",
    "longitude": 121.56413,
    "latitude": 25.0786,
    "coordinateStatus": "valid",
    "source": "臺北市CCTV設施",
    "sourceAgency": "臺北市政府交通局交通管制工程處"
  },
  {
    "id": "traffic-cctv-110",
    "layer": "traffic_cctv",
    "sourceSequenceNumber": 110,
    "city": "臺北市",
    "cameraLocationCodeRaw": "112-堤頂基湖(西南角)",
    "cameraLocationCode": "112",
    "locationDescription": "堤頂基湖(西南角)",
    "longitude": 121.56396,
    "latitude": 25.07897,
    "coordinateStatus": "valid",
    "source": "臺北市CCTV設施",
    "sourceAgency": "臺北市政府交通局交通管制工程處"
  },
  {
    "id": "traffic-cctv-111",
    "layer": "traffic_cctv",
    "sourceSequenceNumber": 111,
    "city": "臺北市",
    "cameraLocationCodeRaw": "113-瑞光港墘(台北登峰)",
    "cameraLocationCode": "113",
    "locationDescription": "瑞光港墘(台北登峰)",
    "longitude": 121.57481,
    "latitude": 25.07623,
    "coordinateStatus": "valid",
    "source": "臺北市CCTV設施",
    "sourceAgency": "臺北市政府交通局交通管制工程處"
  },
  {
    "id": "traffic-cctv-112",
    "layer": "traffic_cctv",
    "sourceSequenceNumber": 112,
    "city": "臺北市",
    "cameraLocationCodeRaw": "114-港墘路220號(遠傳港墘大樓)",
    "cameraLocationCode": "114",
    "locationDescription": "港墘路220號(遠傳港墘大樓)",
    "longitude": 121.57355,
    "latitude": 25.07532,
    "coordinateStatus": "valid",
    "source": "臺北市CCTV設施",
    "sourceAgency": "臺北市政府交通局交通管制工程處"
  },
  {
    "id": "traffic-cctv-113",
    "layer": "traffic_cctv",
    "sourceSequenceNumber": 113,
    "city": "臺北市",
    "cameraLocationCodeRaw": "115-舊宗路2段181巷口",
    "cameraLocationCode": "115",
    "locationDescription": "舊宗路2段181巷口",
    "longitude": 121.57441,
    "latitude": 25.07167,
    "coordinateStatus": "valid",
    "source": "臺北市CCTV設施",
    "sourceAgency": "臺北市政府交通局交通管制工程處"
  },
  {
    "id": "traffic-cctv-114",
    "layer": "traffic_cctv",
    "sourceSequenceNumber": 114,
    "city": "臺北市",
    "cameraLocationCodeRaw": "117- 舊宗路2段與民權東路6段11巷25弄口",
    "cameraLocationCode": "117",
    "locationDescription": "舊宗路2段與民權東路6段11巷25弄口",
    "longitude": 121.57475,
    "latitude": 25.06752,
    "coordinateStatus": "valid",
    "source": "臺北市CCTV設施",
    "sourceAgency": "臺北市政府交通局交通管制工程處"
  },
  {
    "id": "traffic-cctv-115",
    "layer": "traffic_cctv",
    "sourceSequenceNumber": 115,
    "city": "臺北市",
    "cameraLocationCodeRaw": "119-民權舊宗路口",
    "cameraLocationCode": "119",
    "locationDescription": "民權舊宗路口",
    "longitude": 121.5752,
    "latitude": 25.06558,
    "coordinateStatus": "valid",
    "source": "臺北市CCTV設施",
    "sourceAgency": "臺北市政府交通局交通管制工程處"
  },
  {
    "id": "traffic-cctv-116",
    "layer": "traffic_cctv",
    "sourceSequenceNumber": 116,
    "city": "臺北市",
    "cameraLocationCodeRaw": "120-民權東路6段與堤頂大道1段路口號誌桿",
    "cameraLocationCode": "120",
    "locationDescription": "民權東路6段與堤頂大道1段路口號誌桿",
    "longitude": 121.57226,
    "latitude": 25.06488,
    "coordinateStatus": "valid",
    "source": "臺北市CCTV設施",
    "sourceAgency": "臺北市政府交通局交通管制工程處"
  },
  {
    "id": "traffic-cctv-117",
    "layer": "traffic_cctv",
    "sourceSequenceNumber": 117,
    "city": "臺北市",
    "cameraLocationCodeRaw": "121-木柵路1段與木柵路1段76巷口號誌桿",
    "cameraLocationCode": "121",
    "locationDescription": "木柵路1段與木柵路1段76巷口號誌桿",
    "longitude": 121.55016,
    "latitude": 24.98746,
    "coordinateStatus": "valid",
    "source": "臺北市CCTV設施",
    "sourceAgency": "臺北市政府交通局交通管制工程處"
  },
  {
    "id": "traffic-cctv-118",
    "layer": "traffic_cctv",
    "sourceSequenceNumber": 118,
    "city": "臺北市",
    "cameraLocationCodeRaw": "122-新明路成美橋",
    "cameraLocationCode": "122",
    "locationDescription": "新明路成美橋",
    "longitude": 121.58223,
    "latitude": 25.05563,
    "coordinateStatus": "valid",
    "source": "臺北市CCTV設施",
    "sourceAgency": "臺北市政府交通局交通管制工程處"
  },
  {
    "id": "traffic-cctv-119",
    "layer": "traffic_cctv",
    "sourceSequenceNumber": 119,
    "city": "臺北市",
    "cameraLocationCodeRaw": "124-康寧東湖",
    "cameraLocationCode": "124",
    "locationDescription": "康寧東湖",
    "longitude": 121.61218,
    "latitude": 25.06899,
    "coordinateStatus": "valid",
    "source": "臺北市CCTV設施",
    "sourceAgency": "臺北市政府交通局交通管制工程處"
  },
  {
    "id": "traffic-cctv-120",
    "layer": "traffic_cctv",
    "sourceSequenceNumber": 120,
    "city": "臺北市",
    "cameraLocationCodeRaw": "125-二殯西北角(辛亥路三段330號)",
    "cameraLocationCode": "125",
    "locationDescription": "二殯西北角(辛亥路三段330號)",
    "longitude": 121.55308,
    "latitude": 25.01375,
    "coordinateStatus": "valid",
    "source": "臺北市CCTV設施",
    "sourceAgency": "臺北市政府交通局交通管制工程處"
  },
  {
    "id": "traffic-cctv-121",
    "layer": "traffic_cctv",
    "sourceSequenceNumber": 121,
    "city": "臺北市",
    "cameraLocationCodeRaw": "126-芳蘭路-基隆路三段155巷176弄",
    "cameraLocationCode": "126",
    "locationDescription": "芳蘭路-基隆路三段155巷176弄",
    "longitude": 121.54695,
    "latitude": 25.01431,
    "coordinateStatus": "valid",
    "source": "臺北市CCTV設施",
    "sourceAgency": "臺北市政府交通局交通管制工程處"
  },
  {
    "id": "traffic-cctv-122",
    "layer": "traffic_cctv",
    "sourceSequenceNumber": 122,
    "city": "臺北市",
    "cameraLocationCodeRaw": "127-辛亥路-芳蘭路(門架上)",
    "cameraLocationCode": "127",
    "locationDescription": "辛亥路-芳蘭路(門架上)",
    "longitude": 121.54904,
    "latitude": 25.01694,
    "coordinateStatus": "valid",
    "source": "臺北市CCTV設施",
    "sourceAgency": "臺北市政府交通局交通管制工程處"
  },
  {
    "id": "traffic-cctv-123",
    "layer": "traffic_cctv",
    "sourceSequenceNumber": 123,
    "city": "臺北市",
    "cameraLocationCodeRaw": "128-信義松智東南角",
    "cameraLocationCode": "128",
    "locationDescription": "信義松智東南角",
    "longitude": 121.56548,
    "latitude": 25.03285,
    "coordinateStatus": "valid",
    "source": "臺北市CCTV設施",
    "sourceAgency": "臺北市政府交通局交通管制工程處"
  },
  {
    "id": "traffic-cctv-124",
    "layer": "traffic_cctv",
    "sourceSequenceNumber": 124,
    "city": "臺北市",
    "cameraLocationCodeRaw": "129-忠孝光復",
    "cameraLocationCode": "129",
    "locationDescription": "忠孝光復",
    "longitude": 121.55773,
    "latitude": 25.0414,
    "coordinateStatus": "valid",
    "source": "臺北市CCTV設施",
    "sourceAgency": "臺北市政府交通局交通管制工程處"
  },
  {
    "id": "traffic-cctv-125",
    "layer": "traffic_cctv",
    "sourceSequenceNumber": 125,
    "city": "臺北市",
    "cameraLocationCodeRaw": "130-忠孝基隆",
    "cameraLocationCode": "130",
    "locationDescription": "忠孝基隆",
    "longitude": 121.56469,
    "latitude": 25.04142,
    "coordinateStatus": "valid",
    "source": "臺北市CCTV設施",
    "sourceAgency": "臺北市政府交通局交通管制工程處"
  },
  {
    "id": "traffic-cctv-126",
    "layer": "traffic_cctv",
    "sourceSequenceNumber": 126,
    "city": "臺北市",
    "cameraLocationCodeRaw": "131-忠孝松山",
    "cameraLocationCode": "131",
    "locationDescription": "忠孝松山",
    "longitude": 121.57809,
    "latitude": 25.04091,
    "coordinateStatus": "valid",
    "source": "臺北市CCTV設施",
    "sourceAgency": "臺北市政府交通局交通管制工程處"
  },
  {
    "id": "traffic-cctv-127",
    "layer": "traffic_cctv",
    "sourceSequenceNumber": 127,
    "city": "臺北市",
    "cameraLocationCodeRaw": "132-仁愛光復",
    "cameraLocationCode": "132",
    "locationDescription": "仁愛光復",
    "longitude": 121.55778,
    "latitude": 25.03772,
    "coordinateStatus": "valid",
    "source": "臺北市CCTV設施",
    "sourceAgency": "臺北市政府交通局交通管制工程處"
  },
  {
    "id": "traffic-cctv-128",
    "layer": "traffic_cctv",
    "sourceSequenceNumber": 128,
    "city": "臺北市",
    "cameraLocationCodeRaw": "133-松高松智",
    "cameraLocationCode": "133",
    "locationDescription": "松高松智",
    "longitude": 121.56557,
    "latitude": 25.0392,
    "coordinateStatus": "valid",
    "source": "臺北市CCTV設施",
    "sourceAgency": "臺北市政府交通局交通管制工程處"
  },
  {
    "id": "traffic-cctv-129",
    "layer": "traffic_cctv",
    "sourceSequenceNumber": 129,
    "city": "臺北市",
    "cameraLocationCodeRaw": "134-松仁松壽",
    "cameraLocationCode": "134",
    "locationDescription": "松仁松壽",
    "longitude": 121.56831,
    "latitude": 25.03578,
    "coordinateStatus": "valid",
    "source": "臺北市CCTV設施",
    "sourceAgency": "臺北市政府交通局交通管制工程處"
  },
  {
    "id": "traffic-cctv-130",
    "layer": "traffic_cctv",
    "sourceSequenceNumber": 130,
    "city": "臺北市",
    "cameraLocationCodeRaw": "135-基隆信義",
    "cameraLocationCode": "135",
    "locationDescription": "基隆信義",
    "longitude": 121.55977,
    "latitude": 25.03304,
    "coordinateStatus": "valid",
    "source": "臺北市CCTV設施",
    "sourceAgency": "臺北市政府交通局交通管制工程處"
  },
  {
    "id": "traffic-cctv-131",
    "layer": "traffic_cctv",
    "sourceSequenceNumber": 131,
    "city": "臺北市",
    "cameraLocationCodeRaw": "136-基隆光復",
    "cameraLocationCode": "136",
    "locationDescription": "基隆光復",
    "longitude": 121.55977,
    "latitude": 25.03304,
    "coordinateStatus": "valid",
    "source": "臺北市CCTV設施",
    "sourceAgency": "臺北市政府交通局交通管制工程處"
  },
  {
    "id": "traffic-cctv-132",
    "layer": "traffic_cctv",
    "sourceSequenceNumber": 132,
    "city": "臺北市",
    "cameraLocationCodeRaw": "137-市府西南(松壽市府)",
    "cameraLocationCode": "137",
    "locationDescription": "市府西南(松壽市府)",
    "longitude": 121.56381,
    "latitude": 25.03609,
    "coordinateStatus": "valid",
    "source": "臺北市CCTV設施",
    "sourceAgency": "臺北市政府交通局交通管制工程處"
  },
  {
    "id": "traffic-cctv-133",
    "layer": "traffic_cctv",
    "sourceSequenceNumber": 133,
    "city": "臺北市",
    "cameraLocationCodeRaw": "138-市府東南(松壽松智)",
    "cameraLocationCode": "138",
    "locationDescription": "市府東南(松壽松智)",
    "longitude": 121.56522,
    "latitude": 25.03607,
    "coordinateStatus": "valid",
    "source": "臺北市CCTV設施",
    "sourceAgency": "臺北市政府交通局交通管制工程處"
  },
  {
    "id": "traffic-cctv-134",
    "layer": "traffic_cctv",
    "sourceSequenceNumber": 134,
    "city": "臺北市",
    "cameraLocationCodeRaw": "139-市府東北(松高松智)",
    "cameraLocationCode": "139",
    "locationDescription": "市府東北(松高松智)",
    "longitude": 121.56527,
    "latitude": 25.03887,
    "coordinateStatus": "valid",
    "source": "臺北市CCTV設施",
    "sourceAgency": "臺北市政府交通局交通管制工程處"
  },
  {
    "id": "traffic-cctv-135",
    "layer": "traffic_cctv",
    "sourceSequenceNumber": 135,
    "city": "臺北市",
    "cameraLocationCodeRaw": "140-市府西北(松高市府)",
    "cameraLocationCode": "140",
    "locationDescription": "市府西北(松高市府)",
    "longitude": 121.56378,
    "latitude": 25.03895,
    "coordinateStatus": "valid",
    "source": "臺北市CCTV設施",
    "sourceAgency": "臺北市政府交通局交通管制工程處"
  },
  {
    "id": "traffic-cctv-136",
    "layer": "traffic_cctv",
    "sourceSequenceNumber": 136,
    "city": "臺北市",
    "cameraLocationCodeRaw": "141-北安明水(近大直橋)",
    "cameraLocationCode": "141",
    "locationDescription": "北安明水(近大直橋)",
    "longitude": 121.55158,
    "latitude": 25.08575,
    "coordinateStatus": "valid",
    "source": "臺北市CCTV設施",
    "sourceAgency": "臺北市政府交通局交通管制工程處"
  },
  {
    "id": "traffic-cctv-137",
    "layer": "traffic_cctv",
    "sourceSequenceNumber": 137,
    "city": "臺北市",
    "cameraLocationCodeRaw": "142-北安明水(近自強隧道)",
    "cameraLocationCode": "142",
    "locationDescription": "北安明水(近自強隧道)",
    "longitude": 121.55284,
    "latitude": 25.08587,
    "coordinateStatus": "valid",
    "source": "臺北市CCTV設施",
    "sourceAgency": "臺北市政府交通局交通管制工程處"
  },
  {
    "id": "traffic-cctv-138",
    "layer": "traffic_cctv",
    "sourceSequenceNumber": 138,
    "city": "臺北市",
    "cameraLocationCodeRaw": "143-內湖堤頂(西側)",
    "cameraLocationCode": "143",
    "locationDescription": "內湖堤頂(西側)",
    "longitude": 121.56076,
    "latitude": 25.0842,
    "coordinateStatus": "valid",
    "source": "臺北市CCTV設施",
    "sourceAgency": "臺北市政府交通局交通管制工程處"
  },
  {
    "id": "traffic-cctv-139",
    "layer": "traffic_cctv",
    "sourceSequenceNumber": 139,
    "city": "臺北市",
    "cameraLocationCodeRaw": "145-內湖港墘",
    "cameraLocationCode": "145",
    "locationDescription": "內湖港墘",
    "longitude": 121.57659,
    "latitude": 25.07961,
    "coordinateStatus": "valid",
    "source": "臺北市CCTV設施",
    "sourceAgency": "臺北市政府交通局交通管制工程處"
  },
  {
    "id": "traffic-cctv-140",
    "layer": "traffic_cctv",
    "sourceSequenceNumber": 140,
    "city": "臺北市",
    "cameraLocationCodeRaw": "146-成功文德",
    "cameraLocationCode": "146",
    "locationDescription": "成功文德",
    "longitude": 121.5896,
    "latitude": 25.07931,
    "coordinateStatus": "valid",
    "source": "臺北市CCTV設施",
    "sourceAgency": "臺北市政府交通局交通管制工程處"
  },
  {
    "id": "traffic-cctv-141",
    "layer": "traffic_cctv",
    "sourceSequenceNumber": 141,
    "city": "臺北市",
    "cameraLocationCodeRaw": "147-明水樂群一路",
    "cameraLocationCode": "147",
    "locationDescription": "明水樂群一路",
    "longitude": 121.5507,
    "latitude": 25.07728,
    "coordinateStatus": "valid",
    "source": "臺北市CCTV設施",
    "sourceAgency": "臺北市政府交通局交通管制工程處"
  },
  {
    "id": "traffic-cctv-142",
    "layer": "traffic_cctv",
    "sourceSequenceNumber": 142,
    "city": "臺北市",
    "cameraLocationCodeRaw": "148-敬業三路樂群二路",
    "cameraLocationCode": "148",
    "locationDescription": "敬業三路樂群二路",
    "longitude": 121.55615,
    "latitude": 25.07987,
    "coordinateStatus": "valid",
    "source": "臺北市CCTV設施",
    "sourceAgency": "臺北市政府交通局交通管制工程處"
  },
  {
    "id": "traffic-cctv-143",
    "layer": "traffic_cctv",
    "sourceSequenceNumber": 143,
    "city": "臺北市",
    "cameraLocationCodeRaw": "149-瑞光路478巷口",
    "cameraLocationCode": "149",
    "locationDescription": "瑞光路478巷口",
    "longitude": 121.56943,
    "latitude": 25.07896,
    "coordinateStatus": "valid",
    "source": "臺北市CCTV設施",
    "sourceAgency": "臺北市政府交通局交通管制工程處"
  },
  {
    "id": "traffic-cctv-144",
    "layer": "traffic_cctv",
    "sourceSequenceNumber": 144,
    "city": "臺北市",
    "cameraLocationCodeRaw": "150-瑞光陽光(瑞光社宅)",
    "cameraLocationCode": "150",
    "locationDescription": "瑞光陽光(瑞光社宅)",
    "longitude": 121.57906,
    "latitude": 25.07357,
    "coordinateStatus": "valid",
    "source": "臺北市CCTV設施",
    "sourceAgency": "臺北市政府交通局交通管制工程處"
  },
  {
    "id": "traffic-cctv-145",
    "layer": "traffic_cctv",
    "sourceSequenceNumber": 145,
    "city": "臺北市",
    "cameraLocationCodeRaw": "151-堤頂大道樂群一路",
    "cameraLocationCode": "151",
    "locationDescription": "堤頂大道樂群一路",
    "longitude": 121.56855,
    "latitude": 25.07726,
    "coordinateStatus": "valid",
    "source": "臺北市CCTV設施",
    "sourceAgency": "臺北市政府交通局交通管制工程處"
  },
  {
    "id": "traffic-cctv-146",
    "layer": "traffic_cctv",
    "sourceSequenceNumber": 146,
    "city": "臺北市",
    "cameraLocationCodeRaw": "152-堤頂大道1段與港墘路口往北",
    "cameraLocationCode": "152",
    "locationDescription": "堤頂大道1段與港墘路口往北",
    "longitude": 121.5724,
    "latitude": 25.07461,
    "coordinateStatus": "valid",
    "source": "臺北市CCTV設施",
    "sourceAgency": "臺北市政府交通局交通管制工程處"
  },
  {
    "id": "traffic-cctv-147",
    "layer": "traffic_cctv",
    "sourceSequenceNumber": 147,
    "city": "臺北市",
    "cameraLocationCodeRaw": "153-民權行愛",
    "cameraLocationCode": "153",
    "locationDescription": "民權行愛",
    "longitude": 121.57833,
    "latitude": 25.06675,
    "coordinateStatus": "valid",
    "source": "臺北市CCTV設施",
    "sourceAgency": "臺北市政府交通局交通管制工程處"
  },
  {
    "id": "traffic-cctv-148",
    "layer": "traffic_cctv",
    "sourceSequenceNumber": 148,
    "city": "臺北市",
    "cameraLocationCodeRaw": "154-民權瑞光",
    "cameraLocationCode": "154",
    "locationDescription": "民權瑞光",
    "longitude": 121.58398,
    "latitude": 25.06863,
    "coordinateStatus": "valid",
    "source": "臺北市CCTV設施",
    "sourceAgency": "臺北市政府交通局交通管制工程處"
  },
  {
    "id": "traffic-cctv-149",
    "layer": "traffic_cctv",
    "sourceSequenceNumber": 149,
    "city": "臺北市",
    "cameraLocationCodeRaw": "155-民權成功",
    "cameraLocationCode": "155",
    "locationDescription": "民權成功",
    "longitude": 121.59059,
    "latitude": 25.06905,
    "coordinateStatus": "valid",
    "source": "臺北市CCTV設施",
    "sourceAgency": "臺北市政府交通局交通管制工程處"
  },
  {
    "id": "traffic-cctv-150",
    "layer": "traffic_cctv",
    "sourceSequenceNumber": 150,
    "city": "臺北市",
    "cameraLocationCodeRaw": "156-舊宗新湖二路",
    "cameraLocationCode": "156",
    "locationDescription": "舊宗新湖二路",
    "longitude": 121.57825,
    "latitude": 25.06175,
    "coordinateStatus": "valid",
    "source": "臺北市CCTV設施",
    "sourceAgency": "臺北市政府交通局交通管制工程處"
  },
  {
    "id": "traffic-cctv-151",
    "layer": "traffic_cctv",
    "sourceSequenceNumber": 151,
    "city": "臺北市",
    "cameraLocationCodeRaw": "157-中山劍潭(東側)",
    "cameraLocationCode": "157",
    "locationDescription": "中山劍潭(東側)",
    "longitude": 121.52562,
    "latitude": 25.08402,
    "coordinateStatus": "valid",
    "source": "臺北市CCTV設施",
    "sourceAgency": "臺北市政府交通局交通管制工程處"
  },
  {
    "id": "traffic-cctv-152",
    "layer": "traffic_cctv",
    "sourceSequenceNumber": 152,
    "city": "臺北市",
    "cameraLocationCodeRaw": "158-延平民權(進城)",
    "cameraLocationCode": "158",
    "locationDescription": "延平民權(進城)",
    "longitude": 121.51123,
    "latitude": 25.06305,
    "coordinateStatus": "valid",
    "source": "臺北市CCTV設施",
    "sourceAgency": "臺北市政府交通局交通管制工程處"
  },
  {
    "id": "traffic-cctv-153",
    "layer": "traffic_cctv",
    "sourceSequenceNumber": 153,
    "city": "臺北市",
    "cameraLocationCodeRaw": "159-延平民權(出城)",
    "cameraLocationCode": "159",
    "locationDescription": "延平民權(出城)",
    "longitude": 121.51126,
    "latitude": 25.06283,
    "coordinateStatus": "valid",
    "source": "臺北市CCTV設施",
    "sourceAgency": "臺北市政府交通局交通管制工程處"
  },
  {
    "id": "traffic-cctv-154",
    "layer": "traffic_cctv",
    "sourceSequenceNumber": 154,
    "city": "臺北市",
    "cameraLocationCodeRaw": "160-民權承德(西側)",
    "cameraLocationCode": "160",
    "locationDescription": "民權承德(西側)",
    "longitude": 121.51806,
    "latitude": 25.06288,
    "coordinateStatus": "valid",
    "source": "臺北市CCTV設施",
    "sourceAgency": "臺北市政府交通局交通管制工程處"
  },
  {
    "id": "traffic-cctv-155",
    "layer": "traffic_cctv",
    "sourceSequenceNumber": 155,
    "city": "臺北市",
    "cameraLocationCodeRaw": "161-民權承德(東側)",
    "cameraLocationCode": "161",
    "locationDescription": "民權承德(東側)",
    "longitude": 121.51798,
    "latitude": 25.06291,
    "coordinateStatus": "valid",
    "source": "臺北市CCTV設施",
    "sourceAgency": "臺北市政府交通局交通管制工程處"
  },
  {
    "id": "traffic-cctv-156",
    "layer": "traffic_cctv",
    "sourceSequenceNumber": 156,
    "city": "臺北市",
    "cameraLocationCodeRaw": "162-市民重慶(東側)",
    "cameraLocationCode": "162",
    "locationDescription": "市民重慶(東側)",
    "longitude": 121.51336,
    "latitude": 25.04928,
    "coordinateStatus": "valid",
    "source": "臺北市CCTV設施",
    "sourceAgency": "臺北市政府交通局交通管制工程處"
  },
  {
    "id": "traffic-cctv-157",
    "layer": "traffic_cctv",
    "sourceSequenceNumber": 157,
    "city": "臺北市",
    "cameraLocationCodeRaw": "163-市民承德(南側)",
    "cameraLocationCode": "163",
    "locationDescription": "市民承德(南側)",
    "longitude": 121.51635,
    "latitude": 25.04877,
    "coordinateStatus": "valid",
    "source": "臺北市CCTV設施",
    "sourceAgency": "臺北市政府交通局交通管制工程處"
  },
  {
    "id": "traffic-cctv-158",
    "layer": "traffic_cctv",
    "sourceSequenceNumber": 158,
    "city": "臺北市",
    "cameraLocationCodeRaw": "164-市民承德(西側)",
    "cameraLocationCode": "164",
    "locationDescription": "市民承德(西側)",
    "longitude": 121.51642,
    "latitude": 25.04855,
    "coordinateStatus": "valid",
    "source": "臺北市CCTV設施",
    "sourceAgency": "臺北市政府交通局交通管制工程處"
  },
  {
    "id": "traffic-cctv-159",
    "layer": "traffic_cctv",
    "sourceSequenceNumber": 159,
    "city": "臺北市",
    "cameraLocationCodeRaw": "165-市民中山(西南角)",
    "cameraLocationCode": "165",
    "locationDescription": "市民中山(西南角)",
    "longitude": 121.52059,
    "latitude": 25.04794,
    "coordinateStatus": "valid",
    "source": "臺北市CCTV設施",
    "sourceAgency": "臺北市政府交通局交通管制工程處"
  },
  {
    "id": "traffic-cctv-160",
    "layer": "traffic_cctv",
    "sourceSequenceNumber": 160,
    "city": "臺北市",
    "cameraLocationCodeRaw": "166-市民中山(西北角)",
    "cameraLocationCode": "166",
    "locationDescription": "市民中山(西北角)",
    "longitude": 121.52059,
    "latitude": 25.04813,
    "coordinateStatus": "valid",
    "source": "臺北市CCTV設施",
    "sourceAgency": "臺北市政府交通局交通管制工程處"
  },
  {
    "id": "traffic-cctv-161",
    "layer": "traffic_cctv",
    "sourceSequenceNumber": 161,
    "city": "臺北市",
    "cameraLocationCodeRaw": "167-重慶愛國(西側)",
    "cameraLocationCode": "167",
    "locationDescription": "重慶愛國(西側)",
    "longitude": 121.51226,
    "latitude": 25.03531,
    "coordinateStatus": "valid",
    "source": "臺北市CCTV設施",
    "sourceAgency": "臺北市政府交通局交通管制工程處"
  },
  {
    "id": "traffic-cctv-162",
    "layer": "traffic_cctv",
    "sourceSequenceNumber": 162,
    "city": "臺北市",
    "cameraLocationCodeRaw": "168-師大汀州(南側)",
    "cameraLocationCode": "168",
    "locationDescription": "師大汀州(南側)",
    "longitude": 121.52537,
    "latitude": 25.02089,
    "coordinateStatus": "valid",
    "source": "臺北市CCTV設施",
    "sourceAgency": "臺北市政府交通局交通管制工程處"
  },
  {
    "id": "traffic-cctv-163",
    "layer": "traffic_cctv",
    "sourceSequenceNumber": 163,
    "city": "臺北市",
    "cameraLocationCodeRaw": "169-基隆路3段156巷",
    "cameraLocationCode": "169",
    "locationDescription": "基隆路3段156巷",
    "longitude": 121.54248,
    "latitude": 25.01591,
    "coordinateStatus": "valid",
    "source": "臺北市CCTV設施",
    "sourceAgency": "臺北市政府交通局交通管制工程處"
  },
  {
    "id": "traffic-cctv-164",
    "layer": "traffic_cctv",
    "sourceSequenceNumber": 164,
    "city": "臺北市",
    "cameraLocationCodeRaw": "170-基隆羅斯(台電綜合研究所頂樓)",
    "cameraLocationCode": "170",
    "locationDescription": "基隆羅斯(台電綜合研究所頂樓)",
    "longitude": 121.53664,
    "latitude": 25.01138,
    "coordinateStatus": "valid",
    "source": "臺北市CCTV設施",
    "sourceAgency": "臺北市政府交通局交通管制工程處"
  },
  {
    "id": "traffic-cctv-165",
    "layer": "traffic_cctv",
    "sourceSequenceNumber": 165,
    "city": "臺北市",
    "cameraLocationCodeRaw": "171-新生羅斯",
    "cameraLocationCode": "171",
    "locationDescription": "新生羅斯",
    "longitude": 121.53303,
    "latitude": 25.01624,
    "coordinateStatus": "valid",
    "source": "臺北市CCTV設施",
    "sourceAgency": "臺北市政府交通局交通管制工程處"
  },
  {
    "id": "traffic-cctv-166",
    "layer": "traffic_cctv",
    "sourceSequenceNumber": 166,
    "city": "臺北市",
    "cameraLocationCodeRaw": "172-基隆羅斯(東南角)",
    "cameraLocationCode": "172",
    "locationDescription": "基隆羅斯(東南角)",
    "longitude": 121.53729,
    "latitude": 25.01083,
    "coordinateStatus": "valid",
    "source": "臺北市CCTV設施",
    "sourceAgency": "臺北市政府交通局交通管制工程處"
  },
  {
    "id": "traffic-cctv-167",
    "layer": "traffic_cctv",
    "sourceSequenceNumber": 167,
    "city": "臺北市",
    "cameraLocationCodeRaw": "173-仁愛敦化(北側)",
    "cameraLocationCode": "173",
    "locationDescription": "仁愛敦化(北側)",
    "longitude": 121.54871,
    "latitude": 25.0383,
    "coordinateStatus": "valid",
    "source": "臺北市CCTV設施",
    "sourceAgency": "臺北市政府交通局交通管制工程處"
  },
  {
    "id": "traffic-cctv-168",
    "layer": "traffic_cctv",
    "sourceSequenceNumber": 168,
    "city": "臺北市",
    "cameraLocationCodeRaw": "174-仁愛敦化(西側)",
    "cameraLocationCode": "174",
    "locationDescription": "仁愛敦化(西側)",
    "longitude": 121.54823,
    "latitude": 25.03794,
    "coordinateStatus": "valid",
    "source": "臺北市CCTV設施",
    "sourceAgency": "臺北市政府交通局交通管制工程處"
  },
  {
    "id": "traffic-cctv-169",
    "layer": "traffic_cctv",
    "sourceSequenceNumber": 169,
    "city": "臺北市",
    "cameraLocationCodeRaw": "175-仁愛敦化(東側)",
    "cameraLocationCode": "175",
    "locationDescription": "仁愛敦化(東側)",
    "longitude": 121.5494,
    "latitude": 25.03785,
    "coordinateStatus": "valid",
    "source": "臺北市CCTV設施",
    "sourceAgency": "臺北市政府交通局交通管制工程處"
  },
  {
    "id": "traffic-cctv-170",
    "layer": "traffic_cctv",
    "sourceSequenceNumber": 170,
    "city": "臺北市",
    "cameraLocationCodeRaw": "176-仁愛敦化(南側)",
    "cameraLocationCode": "176",
    "locationDescription": "仁愛敦化(南側)",
    "longitude": 121.54878,
    "latitude": 25.03733,
    "coordinateStatus": "valid",
    "source": "臺北市CCTV設施",
    "sourceAgency": "臺北市政府交通局交通管制工程處"
  },
  {
    "id": "traffic-cctv-171",
    "layer": "traffic_cctv",
    "sourceSequenceNumber": 171,
    "city": "臺北市",
    "cameraLocationCodeRaw": "177-基隆路北往南主車道1(基隆忠孝)",
    "cameraLocationCode": "177",
    "locationDescription": "基隆路北往南主車道1(基隆忠孝)",
    "longitude": 121.56439,
    "latitude": 25.04132,
    "coordinateStatus": "valid",
    "source": "臺北市CCTV設施",
    "sourceAgency": "臺北市政府交通局交通管制工程處"
  },
  {
    "id": "traffic-cctv-172",
    "layer": "traffic_cctv",
    "sourceSequenceNumber": 172,
    "city": "臺北市",
    "cameraLocationCodeRaw": "178-基隆路北往南主車道2(基隆忠孝)",
    "cameraLocationCode": "178",
    "locationDescription": "基隆路北往南主車道2(基隆忠孝)",
    "longitude": 121.56427,
    "latitude": 25.04105,
    "coordinateStatus": "valid",
    "source": "臺北市CCTV設施",
    "sourceAgency": "臺北市政府交通局交通管制工程處"
  },
  {
    "id": "traffic-cctv-173",
    "layer": "traffic_cctv",
    "sourceSequenceNumber": 173,
    "city": "臺北市",
    "cameraLocationCodeRaw": "179-基隆路北往南主車道3(基隆忠孝)",
    "cameraLocationCode": "179",
    "locationDescription": "基隆路北往南主車道3(基隆忠孝)",
    "longitude": 121.56427,
    "latitude": 25.0411,
    "coordinateStatus": "valid",
    "source": "臺北市CCTV設施",
    "sourceAgency": "臺北市政府交通局交通管制工程處"
  },
  {
    "id": "traffic-cctv-174",
    "layer": "traffic_cctv",
    "sourceSequenceNumber": 174,
    "city": "臺北市",
    "cameraLocationCodeRaw": "180-基隆路北往南主車道4(基隆松高)",
    "cameraLocationCode": "180",
    "locationDescription": "基隆路北往南主車道4(基隆松高)",
    "longitude": 121.56368,
    "latitude": 25.03917,
    "coordinateStatus": "valid",
    "source": "臺北市CCTV設施",
    "sourceAgency": "臺北市政府交通局交通管制工程處"
  },
  {
    "id": "traffic-cctv-175",
    "layer": "traffic_cctv",
    "sourceSequenceNumber": 175,
    "city": "臺北市",
    "cameraLocationCodeRaw": "181-基隆路北往南主車道5(基隆松高)",
    "cameraLocationCode": "181",
    "locationDescription": "基隆路北往南主車道5(基隆松高)",
    "longitude": 121.56352,
    "latitude": 25.03919,
    "coordinateStatus": "valid",
    "source": "臺北市CCTV設施",
    "sourceAgency": "臺北市政府交通局交通管制工程處"
  },
  {
    "id": "traffic-cctv-176",
    "layer": "traffic_cctv",
    "sourceSequenceNumber": 176,
    "city": "臺北市",
    "cameraLocationCodeRaw": "182-基隆路北往南主車道6(基隆松壽)",
    "cameraLocationCode": "182",
    "locationDescription": "基隆路北往南主車道6(基隆松壽)",
    "longitude": 121.56149,
    "latitude": 25.03594,
    "coordinateStatus": "valid",
    "source": "臺北市CCTV設施",
    "sourceAgency": "臺北市政府交通局交通管制工程處"
  },
  {
    "id": "traffic-cctv-177",
    "layer": "traffic_cctv",
    "sourceSequenceNumber": 177,
    "city": "臺北市",
    "cameraLocationCodeRaw": "183-基隆路北往南主車道7(基隆松壽)",
    "cameraLocationCode": "183",
    "locationDescription": "基隆路北往南主車道7(基隆松壽)",
    "longitude": 121.56141,
    "latitude": 25.03586,
    "coordinateStatus": "valid",
    "source": "臺北市CCTV設施",
    "sourceAgency": "臺北市政府交通局交通管制工程處"
  },
  {
    "id": "traffic-cctv-178",
    "layer": "traffic_cctv",
    "sourceSequenceNumber": 178,
    "city": "臺北市",
    "cameraLocationCodeRaw": "184-基隆路北往南主車道8(基隆松壽)",
    "cameraLocationCode": "184",
    "locationDescription": "基隆路北往南主車道8(基隆松壽)",
    "longitude": 121.56134,
    "latitude": 25.03572,
    "coordinateStatus": "valid",
    "source": "臺北市CCTV設施",
    "sourceAgency": "臺北市政府交通局交通管制工程處"
  },
  {
    "id": "traffic-cctv-179",
    "layer": "traffic_cctv",
    "sourceSequenceNumber": 179,
    "city": "臺北市",
    "cameraLocationCodeRaw": "185-基隆路南往北主車道1(基隆松壽)",
    "cameraLocationCode": "185",
    "locationDescription": "基隆路南往北主車道1(基隆松壽)",
    "longitude": 121.56119,
    "latitude": 25.03592,
    "coordinateStatus": "valid",
    "source": "臺北市CCTV設施",
    "sourceAgency": "臺北市政府交通局交通管制工程處"
  },
  {
    "id": "traffic-cctv-180",
    "layer": "traffic_cctv",
    "sourceSequenceNumber": 180,
    "city": "臺北市",
    "cameraLocationCodeRaw": "186-基隆路南往北主車道2(基隆松壽)",
    "cameraLocationCode": "186",
    "locationDescription": "基隆路南往北主車道2(基隆松壽)",
    "longitude": 121.56113,
    "latitude": 25.03582,
    "coordinateStatus": "valid",
    "source": "臺北市CCTV設施",
    "sourceAgency": "臺北市政府交通局交通管制工程處"
  },
  {
    "id": "traffic-cctv-181",
    "layer": "traffic_cctv",
    "sourceSequenceNumber": 181,
    "city": "臺北市",
    "cameraLocationCodeRaw": "187-基隆路南往北主車道3(基隆松壽)",
    "cameraLocationCode": "187",
    "locationDescription": "基隆路南往北主車道3(基隆松壽)",
    "longitude": 121.56109,
    "latitude": 25.03576,
    "coordinateStatus": "valid",
    "source": "臺北市CCTV設施",
    "sourceAgency": "臺北市政府交通局交通管制工程處"
  },
  {
    "id": "traffic-cctv-182",
    "layer": "traffic_cctv",
    "sourceSequenceNumber": 182,
    "city": "臺北市",
    "cameraLocationCodeRaw": "188-基隆路南往北主車道4(基隆松高)",
    "cameraLocationCode": "188",
    "locationDescription": "基隆路南往北主車道4(基隆松高)",
    "longitude": 121.56357,
    "latitude": 25.03916,
    "coordinateStatus": "valid",
    "source": "臺北市CCTV設施",
    "sourceAgency": "臺北市政府交通局交通管制工程處"
  },
  {
    "id": "traffic-cctv-183",
    "layer": "traffic_cctv",
    "sourceSequenceNumber": 183,
    "city": "臺北市",
    "cameraLocationCodeRaw": "189-基隆路南往北主車道5(基隆松高)",
    "cameraLocationCode": "189",
    "locationDescription": "基隆路南往北主車道5(基隆松高)",
    "longitude": 121.56362,
    "latitude": 25.03916,
    "coordinateStatus": "valid",
    "source": "臺北市CCTV設施",
    "sourceAgency": "臺北市政府交通局交通管制工程處"
  },
  {
    "id": "traffic-cctv-184",
    "layer": "traffic_cctv",
    "sourceSequenceNumber": 184,
    "city": "臺北市",
    "cameraLocationCodeRaw": "190-基隆路南往北主車道6(基隆忠孝)",
    "cameraLocationCode": "190",
    "locationDescription": "基隆路南往北主車道6(基隆忠孝)",
    "longitude": 121.56465,
    "latitude": 25.04129,
    "coordinateStatus": "valid",
    "source": "臺北市CCTV設施",
    "sourceAgency": "臺北市政府交通局交通管制工程處"
  },
  {
    "id": "traffic-cctv-185",
    "layer": "traffic_cctv",
    "sourceSequenceNumber": 185,
    "city": "臺北市",
    "cameraLocationCodeRaw": "191-基隆路南往北主車道7(基隆忠孝)",
    "cameraLocationCode": "191",
    "locationDescription": "基隆路南往北主車道7(基隆忠孝)",
    "longitude": 121.56459,
    "latitude": 25.04121,
    "coordinateStatus": "valid",
    "source": "臺北市CCTV設施",
    "sourceAgency": "臺北市政府交通局交通管制工程處"
  },
  {
    "id": "traffic-cctv-186",
    "layer": "traffic_cctv",
    "sourceSequenceNumber": 186,
    "city": "臺北市",
    "cameraLocationCodeRaw": "192-基隆路南往北主車道8(基隆忠孝)",
    "cameraLocationCode": "192",
    "locationDescription": "基隆路南往北主車道8(基隆忠孝)",
    "longitude": 121.56454,
    "latitude": 25.04111,
    "coordinateStatus": "valid",
    "source": "臺北市CCTV設施",
    "sourceAgency": "臺北市政府交通局交通管制工程處"
  },
  {
    "id": "traffic-cctv-187",
    "layer": "traffic_cctv",
    "sourceSequenceNumber": 187,
    "city": "臺北市",
    "cameraLocationCodeRaw": "193-基隆路北往南混合車道1(基隆松高)",
    "cameraLocationCode": "193",
    "locationDescription": "基隆路北往南混合車道1(基隆松高)",
    "longitude": 121.56371,
    "latitude": 25.03923,
    "coordinateStatus": "valid",
    "source": "臺北市CCTV設施",
    "sourceAgency": "臺北市政府交通局交通管制工程處"
  },
  {
    "id": "traffic-cctv-188",
    "layer": "traffic_cctv",
    "sourceSequenceNumber": 188,
    "city": "臺北市",
    "cameraLocationCodeRaw": "194-基隆路北往南混合車道2(基隆松高)",
    "cameraLocationCode": "194",
    "locationDescription": "基隆路北往南混合車道2(基隆松高)",
    "longitude": 121.5637,
    "latitude": 25.03918,
    "coordinateStatus": "valid",
    "source": "臺北市CCTV設施",
    "sourceAgency": "臺北市政府交通局交通管制工程處"
  },
  {
    "id": "traffic-cctv-189",
    "layer": "traffic_cctv",
    "sourceSequenceNumber": 189,
    "city": "臺北市",
    "cameraLocationCodeRaw": "195-基隆路北往南混合車道3(基隆松壽)",
    "cameraLocationCode": "195",
    "locationDescription": "基隆路北往南混合車道3(基隆松壽)",
    "longitude": 121.56127,
    "latitude": 25.03562,
    "coordinateStatus": "valid",
    "source": "臺北市CCTV設施",
    "sourceAgency": "臺北市政府交通局交通管制工程處"
  },
  {
    "id": "traffic-cctv-190",
    "layer": "traffic_cctv",
    "sourceSequenceNumber": 190,
    "city": "臺北市",
    "cameraLocationCodeRaw": "196-基隆路北往南混合車道4(基隆松壽)",
    "cameraLocationCode": "196",
    "locationDescription": "基隆路北往南混合車道4(基隆松壽)",
    "longitude": 121.56122,
    "latitude": 25.03554,
    "coordinateStatus": "valid",
    "source": "臺北市CCTV設施",
    "sourceAgency": "臺北市政府交通局交通管制工程處"
  },
  {
    "id": "traffic-cctv-191",
    "layer": "traffic_cctv",
    "sourceSequenceNumber": 191,
    "city": "臺北市",
    "cameraLocationCodeRaw": "197-基隆路南往北混合車道1(基隆松壽)",
    "cameraLocationCode": "197",
    "locationDescription": "基隆路南往北混合車道1(基隆松壽)",
    "longitude": 121.56106,
    "latitude": 25.03569,
    "coordinateStatus": "valid",
    "source": "臺北市CCTV設施",
    "sourceAgency": "臺北市政府交通局交通管制工程處"
  },
  {
    "id": "traffic-cctv-192",
    "layer": "traffic_cctv",
    "sourceSequenceNumber": 192,
    "city": "臺北市",
    "cameraLocationCodeRaw": "198-基隆路南往北混合車道2(基隆松壽)",
    "cameraLocationCode": "198",
    "locationDescription": "基隆路南往北混合車道2(基隆松壽)",
    "longitude": 121.56102,
    "latitude": 25.0356,
    "coordinateStatus": "valid",
    "source": "臺北市CCTV設施",
    "sourceAgency": "臺北市政府交通局交通管制工程處"
  },
  {
    "id": "traffic-cctv-193",
    "layer": "traffic_cctv",
    "sourceSequenceNumber": 193,
    "city": "臺北市",
    "cameraLocationCodeRaw": "199-基隆路南往北混合車道3(基隆松高)",
    "cameraLocationCode": "199",
    "locationDescription": "基隆路南往北混合車道3(基隆松高)",
    "longitude": 121.56365,
    "latitude": 25.03931,
    "coordinateStatus": "valid",
    "source": "臺北市CCTV設施",
    "sourceAgency": "臺北市政府交通局交通管制工程處"
  },
  {
    "id": "traffic-cctv-194",
    "layer": "traffic_cctv",
    "sourceSequenceNumber": 194,
    "city": "臺北市",
    "cameraLocationCodeRaw": "200-基隆路南往北混合車道4(基隆忠孝)",
    "cameraLocationCode": "200",
    "locationDescription": "基隆路南往北混合車道4(基隆忠孝)",
    "longitude": 121.56437,
    "latitude": 25.04127,
    "coordinateStatus": "valid",
    "source": "臺北市CCTV設施",
    "sourceAgency": "臺北市政府交通局交通管制工程處"
  },
  {
    "id": "traffic-cctv-195",
    "layer": "traffic_cctv",
    "sourceSequenceNumber": 195,
    "city": "臺北市",
    "cameraLocationCodeRaw": "201-自強隧道往故宮入口0K+16M",
    "cameraLocationCode": "201",
    "locationDescription": "自強隧道往故宮入口0K+16M",
    "longitude": 121.54957,
    "latitude": 25.08717,
    "coordinateStatus": "valid",
    "source": "臺北市CCTV設施",
    "sourceAgency": "臺北市政府交通局交通管制工程處"
  },
  {
    "id": "traffic-cctv-196",
    "layer": "traffic_cctv",
    "sourceSequenceNumber": 196,
    "city": "臺北市",
    "cameraLocationCodeRaw": "202-自強隧道往故宮入口0K+240M",
    "cameraLocationCode": "202",
    "locationDescription": "自強隧道往故宮入口0K+240M",
    "longitude": 121.5493,
    "latitude": 25.09047,
    "coordinateStatus": "valid",
    "source": "臺北市CCTV設施",
    "sourceAgency": "臺北市政府交通局交通管制工程處"
  },
  {
    "id": "traffic-cctv-197",
    "layer": "traffic_cctv",
    "sourceSequenceNumber": 197,
    "city": "臺北市",
    "cameraLocationCodeRaw": "203-自強隧道往故宮入口0K+474M",
    "cameraLocationCode": "203",
    "locationDescription": "自強隧道往故宮入口0K+474M",
    "longitude": 121.54897,
    "latitude": 25.09348,
    "coordinateStatus": "valid",
    "source": "臺北市CCTV設施",
    "sourceAgency": "臺北市政府交通局交通管制工程處"
  },
  {
    "id": "traffic-cctv-198",
    "layer": "traffic_cctv",
    "sourceSequenceNumber": 198,
    "city": "臺北市",
    "cameraLocationCodeRaw": "204-自強隧道往大直入口0K+20M",
    "cameraLocationCode": "204",
    "locationDescription": "自強隧道往大直入口0K+20M",
    "longitude": 121.54851,
    "latitude": 25.09413,
    "coordinateStatus": "valid",
    "source": "臺北市CCTV設施",
    "sourceAgency": "臺北市政府交通局交通管制工程處"
  },
  {
    "id": "traffic-cctv-199",
    "layer": "traffic_cctv",
    "sourceSequenceNumber": 199,
    "city": "臺北市",
    "cameraLocationCodeRaw": "205-自強隧道往大直入口0K+326M",
    "cameraLocationCode": "205",
    "locationDescription": "自強隧道往大直入口0K+326M",
    "longitude": 121.54864,
    "latitude": 25.0924,
    "coordinateStatus": "valid",
    "source": "臺北市CCTV設施",
    "sourceAgency": "臺北市政府交通局交通管制工程處"
  },
  {
    "id": "traffic-cctv-200",
    "layer": "traffic_cctv",
    "sourceSequenceNumber": 200,
    "city": "臺北市",
    "cameraLocationCodeRaw": "206-自強隧道往大直入口0K+553M",
    "cameraLocationCode": "206",
    "locationDescription": "自強隧道往大直入口0K+553M",
    "longitude": 121.54881,
    "latitude": 25.08982,
    "coordinateStatus": "valid",
    "source": "臺北市CCTV設施",
    "sourceAgency": "臺北市政府交通局交通管制工程處"
  },
  {
    "id": "traffic-cctv-201",
    "layer": "traffic_cctv",
    "sourceSequenceNumber": 201,
    "city": "臺北市",
    "cameraLocationCodeRaw": "207-辛亥隧道往木柵入口0K+7M",
    "cameraLocationCode": "207",
    "locationDescription": "辛亥隧道往木柵入口0K+7M",
    "longitude": 121.55437,
    "latitude": 25.01264,
    "coordinateStatus": "valid",
    "source": "臺北市CCTV設施",
    "sourceAgency": "臺北市政府交通局交通管制工程處"
  },
  {
    "id": "traffic-cctv-202",
    "layer": "traffic_cctv",
    "sourceSequenceNumber": 202,
    "city": "臺北市",
    "cameraLocationCodeRaw": "208-辛亥隧道往木柵入口0K+179M",
    "cameraLocationCode": "208",
    "locationDescription": "辛亥隧道往木柵入口0K+179M",
    "longitude": 121.55556,
    "latitude": 25.01147,
    "coordinateStatus": "valid",
    "source": "臺北市CCTV設施",
    "sourceAgency": "臺北市政府交通局交通管制工程處"
  },
  {
    "id": "traffic-cctv-203",
    "layer": "traffic_cctv",
    "sourceSequenceNumber": 203,
    "city": "臺北市",
    "cameraLocationCodeRaw": "209-辛亥隧道往木柵入口0K+331M",
    "cameraLocationCode": "209",
    "locationDescription": "辛亥隧道往木柵入口0K+331M",
    "longitude": 121.55709,
    "latitude": 25.00993,
    "coordinateStatus": "valid",
    "source": "臺北市CCTV設施",
    "sourceAgency": "臺北市政府交通局交通管制工程處"
  },
  {
    "id": "traffic-cctv-204",
    "layer": "traffic_cctv",
    "sourceSequenceNumber": 204,
    "city": "臺北市",
    "cameraLocationCodeRaw": "210-辛亥隧道往市區入口0K+7M",
    "cameraLocationCode": "210",
    "locationDescription": "辛亥隧道往市區入口0K+7M",
    "longitude": 121.55734,
    "latitude": 25.01007,
    "coordinateStatus": "valid",
    "source": "臺北市CCTV設施",
    "sourceAgency": "臺北市政府交通局交通管制工程處"
  },
  {
    "id": "traffic-cctv-205",
    "layer": "traffic_cctv",
    "sourceSequenceNumber": 205,
    "city": "臺北市",
    "cameraLocationCodeRaw": "211-辛亥隧道往市區入口0K+160M",
    "cameraLocationCode": "211",
    "locationDescription": "辛亥隧道往市區入口0K+160M",
    "longitude": 121.55582,
    "latitude": 25.01167,
    "coordinateStatus": "valid",
    "source": "臺北市CCTV設施",
    "sourceAgency": "臺北市政府交通局交通管制工程處"
  },
  {
    "id": "traffic-cctv-206",
    "layer": "traffic_cctv",
    "sourceSequenceNumber": 206,
    "city": "臺北市",
    "cameraLocationCodeRaw": "212-辛亥隧道往市區入口0K+355M",
    "cameraLocationCode": "212",
    "locationDescription": "辛亥隧道往市區入口0K+355M",
    "longitude": 121.55464,
    "latitude": 25.01285,
    "coordinateStatus": "valid",
    "source": "臺北市CCTV設施",
    "sourceAgency": "臺北市政府交通局交通管制工程處"
  },
  {
    "id": "traffic-cctv-207",
    "layer": "traffic_cctv",
    "sourceSequenceNumber": 207,
    "city": "臺北市",
    "cameraLocationCodeRaw": "214-經貿二路157巷",
    "cameraLocationCode": "214",
    "locationDescription": "經貿二路157巷",
    "longitude": 121.61658,
    "latitude": 25.05931,
    "coordinateStatus": "valid",
    "source": "臺北市CCTV設施",
    "sourceAgency": "臺北市政府交通局交通管制工程處"
  },
  {
    "id": "traffic-cctv-208",
    "layer": "traffic_cctv",
    "sourceSequenceNumber": 208,
    "city": "臺北市",
    "cameraLocationCodeRaw": "215-經貿二路105巷口",
    "cameraLocationCode": "215",
    "locationDescription": "經貿二路105巷口",
    "longitude": 121.6165,
    "latitude": 25.05811,
    "coordinateStatus": "valid",
    "source": "臺北市CCTV設施",
    "sourceAgency": "臺北市政府交通局交通管制工程處"
  },
  {
    "id": "traffic-cctv-209",
    "layer": "traffic_cctv",
    "sourceSequenceNumber": 209,
    "city": "臺北市",
    "cameraLocationCodeRaw": "216-南港路經貿一路",
    "cameraLocationCode": "216",
    "locationDescription": "南港路經貿一路",
    "longitude": 121.61872,
    "latitude": 25.05475,
    "coordinateStatus": "valid",
    "source": "臺北市CCTV設施",
    "sourceAgency": "臺北市政府交通局交通管制工程處"
  },
  {
    "id": "traffic-cctv-210",
    "layer": "traffic_cctv",
    "sourceSequenceNumber": 210,
    "city": "臺北市",
    "cameraLocationCodeRaw": "217-南港路興中路",
    "cameraLocationCode": "217",
    "locationDescription": "南港路興中路",
    "longitude": 121.60739,
    "latitude": 25.05444,
    "coordinateStatus": "valid",
    "source": "臺北市CCTV設施",
    "sourceAgency": "臺北市政府交通局交通管制工程處"
  },
  {
    "id": "traffic-cctv-211",
    "layer": "traffic_cctv",
    "sourceSequenceNumber": 211,
    "city": "臺北市",
    "cameraLocationCodeRaw": "218-經貿一路環東大道槽化島",
    "cameraLocationCode": "218",
    "locationDescription": "經貿一路環東大道槽化島",
    "longitude": 121.61708,
    "latitude": 25.06269,
    "coordinateStatus": "valid",
    "source": "臺北市CCTV設施",
    "sourceAgency": "臺北市政府交通局交通管制工程處"
  },
  {
    "id": "traffic-cctv-212",
    "layer": "traffic_cctv",
    "sourceSequenceNumber": 212,
    "city": "臺北市",
    "cameraLocationCodeRaw": "219-環東大道經貿二路出口匝道綠帶",
    "cameraLocationCode": "219",
    "locationDescription": "環東大道經貿二路出口匝道綠帶",
    "longitude": 121.61289,
    "latitude": 25.06278,
    "coordinateStatus": "valid",
    "source": "臺北市CCTV設施",
    "sourceAgency": "臺北市政府交通局交通管制工程處"
  },
  {
    "id": "traffic-cctv-213",
    "layer": "traffic_cctv",
    "sourceSequenceNumber": 213,
    "city": "臺北市",
    "cameraLocationCodeRaw": "220-忠孝東研究院路(車行往北)",
    "cameraLocationCode": "220",
    "locationDescription": "忠孝東研究院路(車行往北)",
    "longitude": 121.61623,
    "latitude": 25.05317,
    "coordinateStatus": "valid",
    "source": "臺北市CCTV設施",
    "sourceAgency": "臺北市政府交通局交通管制工程處"
  },
  {
    "id": "traffic-cctv-214",
    "layer": "traffic_cctv",
    "sourceSequenceNumber": 214,
    "city": "臺北市",
    "cameraLocationCodeRaw": "221-龍門大樓頂樓",
    "cameraLocationCode": "221",
    "locationDescription": "龍門大樓頂樓",
    "longitude": 121.51086,
    "latitude": 25.05042,
    "coordinateStatus": "valid",
    "source": "臺北市CCTV設施",
    "sourceAgency": "臺北市政府交通局交通管制工程處"
  },
  {
    "id": "traffic-cctv-215",
    "layer": "traffic_cctv",
    "sourceSequenceNumber": 215,
    "city": "臺北市",
    "cameraLocationCodeRaw": "222-向陽重陽",
    "cameraLocationCode": "222",
    "locationDescription": "向陽重陽",
    "longitude": 121.59467,
    "latitude": 25.05472,
    "coordinateStatus": "valid",
    "source": "臺北市CCTV設施",
    "sourceAgency": "臺北市政府交通局交通管制工程處"
  },
  {
    "id": "traffic-cctv-216",
    "layer": "traffic_cctv",
    "sourceSequenceNumber": 216,
    "city": "臺北市",
    "cameraLocationCodeRaw": "223-新生高圓山橋",
    "cameraLocationCode": "223",
    "locationDescription": "新生高圓山橋",
    "longitude": 121.52581,
    "latitude": 25.07372,
    "coordinateStatus": "valid",
    "source": "臺北市CCTV設施",
    "sourceAgency": "臺北市政府交通局交通管制工程處"
  },
  {
    "id": "traffic-cctv-217",
    "layer": "traffic_cctv",
    "sourceSequenceNumber": 217,
    "city": "臺北市",
    "cameraLocationCodeRaw": "224-新生高民族",
    "cameraLocationCode": "224",
    "locationDescription": "新生高民族",
    "longitude": 121.52789,
    "latitude": 25.06803,
    "coordinateStatus": "valid",
    "source": "臺北市CCTV設施",
    "sourceAgency": "臺北市政府交通局交通管制工程處"
  },
  {
    "id": "traffic-cctv-218",
    "layer": "traffic_cctv",
    "sourceSequenceNumber": 218,
    "city": "臺北市",
    "cameraLocationCodeRaw": "225-新生高民權",
    "cameraLocationCode": "225",
    "locationDescription": "新生高民權",
    "longitude": 121.52753,
    "latitude": 25.06264,
    "coordinateStatus": "valid",
    "source": "臺北市CCTV設施",
    "sourceAgency": "臺北市政府交通局交通管制工程處"
  },
  {
    "id": "traffic-cctv-219",
    "layer": "traffic_cctv",
    "sourceSequenceNumber": 219,
    "city": "臺北市",
    "cameraLocationCodeRaw": "226-新生高民生",
    "cameraLocationCode": "226",
    "locationDescription": "新生高民生",
    "longitude": 121.52694,
    "latitude": 25.05781,
    "coordinateStatus": "valid",
    "source": "臺北市CCTV設施",
    "sourceAgency": "臺北市政府交通局交通管制工程處"
  },
  {
    "id": "traffic-cctv-220",
    "layer": "traffic_cctv",
    "sourceSequenceNumber": 220,
    "city": "臺北市",
    "cameraLocationCodeRaw": "227-新生高南京",
    "cameraLocationCode": "227",
    "locationDescription": "新生高南京",
    "longitude": 121.52806,
    "latitude": 25.05236,
    "coordinateStatus": "valid",
    "source": "臺北市CCTV設施",
    "sourceAgency": "臺北市政府交通局交通管制工程處"
  },
  {
    "id": "traffic-cctv-221",
    "layer": "traffic_cctv",
    "sourceSequenceNumber": 221,
    "city": "臺北市",
    "cameraLocationCodeRaw": "228-新生高長安",
    "cameraLocationCode": "228",
    "locationDescription": "新生高長安",
    "longitude": 121.52981,
    "latitude": 25.04822,
    "coordinateStatus": "valid",
    "source": "臺北市CCTV設施",
    "sourceAgency": "臺北市政府交通局交通管制工程處"
  },
  {
    "id": "traffic-cctv-222",
    "layer": "traffic_cctv",
    "sourceSequenceNumber": 222,
    "city": "臺北市",
    "cameraLocationCodeRaw": "229-新生高忠孝",
    "cameraLocationCode": "229",
    "locationDescription": "新生高忠孝",
    "longitude": 121.52997,
    "latitude": 25.043,
    "coordinateStatus": "valid",
    "source": "臺北市CCTV設施",
    "sourceAgency": "臺北市政府交通局交通管制工程處"
  },
  {
    "id": "traffic-cctv-223",
    "layer": "traffic_cctv",
    "sourceSequenceNumber": 223,
    "city": "臺北市",
    "cameraLocationCodeRaw": "231-中山北路6段-福國路口",
    "cameraLocationCode": "231",
    "locationDescription": "中山北路6段-福國路口",
    "longitude": 121.52525,
    "latitude": 25.10256,
    "coordinateStatus": "valid",
    "source": "臺北市CCTV設施",
    "sourceAgency": "臺北市政府交通局交通管制工程處"
  },
  {
    "id": "traffic-cctv-224",
    "layer": "traffic_cctv",
    "sourceSequenceNumber": 224,
    "city": "臺北市",
    "cameraLocationCodeRaw": "232-中山北路-通河街口",
    "cameraLocationCode": "232",
    "locationDescription": "中山北路-通河街口",
    "longitude": 121.5242,
    "latitude": 25.07999,
    "coordinateStatus": "valid",
    "source": "臺北市CCTV設施",
    "sourceAgency": "臺北市政府交通局交通管制工程處"
  },
  {
    "id": "traffic-cctv-225",
    "layer": "traffic_cctv",
    "sourceSequenceNumber": 225,
    "city": "臺北市",
    "cameraLocationCodeRaw": "233-中山北路3段-民權東西路口",
    "cameraLocationCode": "233",
    "locationDescription": "中山北路3段-民權東西路口",
    "longitude": 121.52249,
    "latitude": 25.06302,
    "coordinateStatus": "valid",
    "source": "臺北市CCTV設施",
    "sourceAgency": "臺北市政府交通局交通管制工程處"
  },
  {
    "id": "traffic-cctv-226",
    "layer": "traffic_cctv",
    "sourceSequenceNumber": 226,
    "city": "臺北市",
    "cameraLocationCodeRaw": "234-至善路-福林路口",
    "cameraLocationCode": "234",
    "locationDescription": "至善路-福林路口",
    "longitude": 121.53664,
    "latitude": 25.09935,
    "coordinateStatus": "valid",
    "source": "臺北市CCTV設施",
    "sourceAgency": "臺北市政府交通局交通管制工程處"
  },
  {
    "id": "traffic-cctv-227",
    "layer": "traffic_cctv",
    "sourceSequenceNumber": 227,
    "city": "臺北市",
    "cameraLocationCodeRaw": "235-福林路-雨農路-中正路口",
    "cameraLocationCode": "235",
    "locationDescription": "福林路-雨農路-中正路口",
    "longitude": 121.53234,
    "latitude": 25.09671,
    "coordinateStatus": "valid",
    "source": "臺北市CCTV設施",
    "sourceAgency": "臺北市政府交通局交通管制工程處"
  },
  {
    "id": "traffic-cctv-228",
    "layer": "traffic_cctv",
    "sourceSequenceNumber": 228,
    "city": "臺北市",
    "cameraLocationCodeRaw": "236-故宮路-至善路口",
    "cameraLocationCode": "236",
    "locationDescription": "故宮路-至善路口",
    "longitude": 121.54646,
    "latitude": 25.09831,
    "coordinateStatus": "valid",
    "source": "臺北市CCTV設施",
    "sourceAgency": "臺北市政府交通局交通管制工程處"
  },
  {
    "id": "traffic-cctv-229",
    "layer": "traffic_cctv",
    "sourceSequenceNumber": 229,
    "city": "臺北市",
    "cameraLocationCodeRaw": "237-北安路595巷口",
    "cameraLocationCode": "237",
    "locationDescription": "北安路595巷口",
    "longitude": 121.5488,
    "latitude": 25.082,
    "coordinateStatus": "valid",
    "source": "臺北市CCTV設施",
    "sourceAgency": "臺北市政府交通局交通管制工程處"
  },
  {
    "id": "traffic-cctv-230",
    "layer": "traffic_cctv",
    "sourceSequenceNumber": 230,
    "city": "臺北市",
    "cameraLocationCodeRaw": "238-濱江街-大直橋路口",
    "cameraLocationCode": "238",
    "locationDescription": "濱江街-大直橋路口",
    "longitude": 121.54449,
    "latitude": 25.07243,
    "coordinateStatus": "valid",
    "source": "臺北市CCTV設施",
    "sourceAgency": "臺北市政府交通局交通管制工程處"
  },
  {
    "id": "traffic-cctv-231",
    "layer": "traffic_cctv",
    "sourceSequenceNumber": 231,
    "city": "臺北市",
    "cameraLocationCodeRaw": "239- 濱江街150巷口",
    "cameraLocationCode": "239",
    "locationDescription": "濱江街150巷口",
    "longitude": 121.53666,
    "latitude": 25.07258,
    "coordinateStatus": "valid",
    "source": "臺北市CCTV設施",
    "sourceAgency": "臺北市政府交通局交通管制工程處"
  },
  {
    "id": "traffic-cctv-232",
    "layer": "traffic_cctv",
    "sourceSequenceNumber": 232,
    "city": "臺北市",
    "cameraLocationCodeRaw": "240-濱江街大佳國小大門右側(號誌桿)",
    "cameraLocationCode": "240",
    "locationDescription": "濱江街大佳國小大門右側(號誌桿)",
    "longitude": 121.53564,
    "latitude": 25.07314,
    "coordinateStatus": "valid",
    "source": "臺北市CCTV設施",
    "sourceAgency": "臺北市政府交通局交通管制工程處"
  },
  {
    "id": "traffic-cctv-233",
    "layer": "traffic_cctv",
    "sourceSequenceNumber": 233,
    "city": "臺北市",
    "cameraLocationCodeRaw": "241-民族東路-建國北路口",
    "cameraLocationCode": "241",
    "locationDescription": "民族東路-建國北路口",
    "longitude": 121.53316,
    "latitude": 25.06827,
    "coordinateStatus": "valid",
    "source": "臺北市CCTV設施",
    "sourceAgency": "臺北市政府交通局交通管制工程處"
  },
  {
    "id": "traffic-cctv-234",
    "layer": "traffic_cctv",
    "sourceSequenceNumber": 234,
    "city": "臺北市",
    "cameraLocationCodeRaw": "242-松江路-民權東路口",
    "cameraLocationCode": "242",
    "locationDescription": "松江路-民權東路口",
    "longitude": 121.53325,
    "latitude": 25.06232,
    "coordinateStatus": "valid",
    "source": "臺北市CCTV設施",
    "sourceAgency": "臺北市政府交通局交通管制工程處"
  },
  {
    "id": "traffic-cctv-235",
    "layer": "traffic_cctv",
    "sourceSequenceNumber": 235,
    "city": "臺北市",
    "cameraLocationCodeRaw": "243-復興北路427巷(往北)",
    "cameraLocationCode": "243",
    "locationDescription": "復興北路427巷(往北)",
    "longitude": 121.54433,
    "latitude": 25.06331,
    "coordinateStatus": "valid",
    "source": "臺北市CCTV設施",
    "sourceAgency": "臺北市政府交通局交通管制工程處"
  },
  {
    "id": "traffic-cctv-236",
    "layer": "traffic_cctv",
    "sourceSequenceNumber": 236,
    "city": "臺北市",
    "cameraLocationCodeRaw": "244-民族西路-延平北路口",
    "cameraLocationCode": "244",
    "locationDescription": "民族西路-延平北路口",
    "longitude": 121.51073,
    "latitude": 25.06869,
    "coordinateStatus": "valid",
    "source": "臺北市CCTV設施",
    "sourceAgency": "臺北市政府交通局交通管制工程處"
  },
  {
    "id": "traffic-cctv-237",
    "layer": "traffic_cctv",
    "sourceSequenceNumber": 237,
    "city": "臺北市",
    "cameraLocationCodeRaw": "245-復興北路427巷(往南)",
    "cameraLocationCode": "245",
    "locationDescription": "復興北路427巷(往南)",
    "longitude": 121.54419,
    "latitude": 25.06331,
    "coordinateStatus": "valid",
    "source": "臺北市CCTV設施",
    "sourceAgency": "臺北市政府交通局交通管制工程處"
  },
  {
    "id": "traffic-cctv-238",
    "layer": "traffic_cctv",
    "sourceSequenceNumber": 238,
    "city": "臺北市",
    "cameraLocationCodeRaw": "246-承德-庫倫",
    "cameraLocationCode": "246",
    "locationDescription": "承德-庫倫",
    "longitude": 121.51858,
    "latitude": 25.072,
    "coordinateStatus": "valid",
    "source": "臺北市CCTV設施",
    "sourceAgency": "臺北市政府交通局交通管制工程處"
  },
  {
    "id": "traffic-cctv-239",
    "layer": "traffic_cctv",
    "sourceSequenceNumber": 239,
    "city": "臺北市",
    "cameraLocationCodeRaw": "247-北安路-大直橋頭",
    "cameraLocationCode": "247",
    "locationDescription": "北安路-大直橋頭",
    "longitude": 121.54436,
    "latitude": 25.07981,
    "coordinateStatus": "valid",
    "source": "臺北市CCTV設施",
    "sourceAgency": "臺北市政府交通局交通管制工程處"
  },
  {
    "id": "traffic-cctv-240",
    "layer": "traffic_cctv",
    "sourceSequenceNumber": 240,
    "city": "臺北市",
    "cameraLocationCodeRaw": "248-北安路-中山北路口",
    "cameraLocationCode": "248",
    "locationDescription": "北安路-中山北路口",
    "longitude": 121.52714,
    "latitude": 25.07651,
    "coordinateStatus": "valid",
    "source": "臺北市CCTV設施",
    "sourceAgency": "臺北市政府交通局交通管制工程處"
  },
  {
    "id": "traffic-cctv-241",
    "layer": "traffic_cctv",
    "sourceSequenceNumber": 241,
    "city": "臺北市",
    "cameraLocationCodeRaw": "249-中山北路-圓山隧道口",
    "cameraLocationCode": "249",
    "locationDescription": "中山北路-圓山隧道口",
    "longitude": 121.52503,
    "latitude": 25.07674,
    "coordinateStatus": "valid",
    "source": "臺北市CCTV設施",
    "sourceAgency": "臺北市政府交通局交通管制工程處"
  },
  {
    "id": "traffic-cctv-242",
    "layer": "traffic_cctv",
    "sourceSequenceNumber": 242,
    "city": "臺北市",
    "cameraLocationCodeRaw": "250-劍潭路-中山北路口",
    "cameraLocationCode": "250",
    "locationDescription": "劍潭路-中山北路口",
    "longitude": 121.52536,
    "latitude": 25.08421,
    "coordinateStatus": "valid",
    "source": "臺北市CCTV設施",
    "sourceAgency": "臺北市政府交通局交通管制工程處"
  },
  {
    "id": "traffic-cctv-243",
    "layer": "traffic_cctv",
    "sourceSequenceNumber": 243,
    "city": "臺北市",
    "cameraLocationCodeRaw": "251-劍潭路-承德路口",
    "cameraLocationCode": "251",
    "locationDescription": "劍潭路-承德路口",
    "longitude": 121.52363,
    "latitude": 25.08425,
    "coordinateStatus": "valid",
    "source": "臺北市CCTV設施",
    "sourceAgency": "臺北市政府交通局交通管制工程處"
  },
  {
    "id": "traffic-cctv-244",
    "layer": "traffic_cctv",
    "sourceSequenceNumber": 244,
    "city": "臺北市",
    "cameraLocationCodeRaw": "252-民族西路承德路口",
    "cameraLocationCode": "252",
    "locationDescription": "民族西路承德路口",
    "longitude": 121.51853,
    "latitude": 25.06853,
    "coordinateStatus": "valid",
    "source": "臺北市CCTV設施",
    "sourceAgency": "臺北市政府交通局交通管制工程處"
  },
  {
    "id": "traffic-cctv-245",
    "layer": "traffic_cctv",
    "sourceSequenceNumber": 245,
    "city": "臺北市",
    "cameraLocationCodeRaw": "253-民族西路-中山北路口",
    "cameraLocationCode": "253",
    "locationDescription": "民族西路-中山北路口",
    "longitude": 121.52278,
    "latitude": 25.06852,
    "coordinateStatus": "valid",
    "source": "臺北市CCTV設施",
    "sourceAgency": "臺北市政府交通局交通管制工程處"
  },
  {
    "id": "traffic-cctv-246",
    "layer": "traffic_cctv",
    "sourceSequenceNumber": 246,
    "city": "臺北市",
    "cameraLocationCodeRaw": "254-民權東路三段-龍江路",
    "cameraLocationCode": "254",
    "locationDescription": "民權東路三段-龍江路",
    "longitude": 121.51448,
    "latitude": 25.03196,
    "coordinateStatus": "valid",
    "source": "臺北市CCTV設施",
    "sourceAgency": "臺北市政府交通局交通管制工程處"
  },
  {
    "id": "traffic-cctv-247",
    "layer": "traffic_cctv",
    "sourceSequenceNumber": 247,
    "city": "臺北市",
    "cameraLocationCodeRaw": "255-木柵秀明",
    "cameraLocationCode": "255",
    "locationDescription": "木柵秀明",
    "longitude": 121.57108,
    "latitude": 24.9917,
    "coordinateStatus": "valid",
    "source": "臺北市CCTV設施",
    "sourceAgency": "臺北市政府交通局交通管制工程處"
  },
  {
    "id": "traffic-cctv-248",
    "layer": "traffic_cctv",
    "sourceSequenceNumber": 248,
    "city": "臺北市",
    "cameraLocationCodeRaw": "256-木柵焚化廠",
    "cameraLocationCode": "256",
    "locationDescription": "木柵焚化廠",
    "longitude": 121.58768,
    "latitude": 25.00522,
    "coordinateStatus": "valid",
    "source": "臺北市CCTV設施",
    "sourceAgency": "臺北市政府交通局交通管制工程處"
  },
  {
    "id": "traffic-cctv-249",
    "layer": "traffic_cctv",
    "sourceSequenceNumber": 249,
    "city": "臺北市",
    "cameraLocationCodeRaw": "257-忠孝東路-松仁路口",
    "cameraLocationCode": "257",
    "locationDescription": "忠孝東路-松仁路口",
    "longitude": 121.56891,
    "latitude": 25.04087,
    "coordinateStatus": "valid",
    "source": "臺北市CCTV設施",
    "sourceAgency": "臺北市政府交通局交通管制工程處"
  },
  {
    "id": "traffic-cctv-250",
    "layer": "traffic_cctv",
    "sourceSequenceNumber": 250,
    "city": "臺北市",
    "cameraLocationCodeRaw": "258-民生東路-松江路口",
    "cameraLocationCode": "258",
    "locationDescription": "民生東路-松江路口",
    "longitude": 121.53292,
    "latitude": 25.05791,
    "coordinateStatus": "valid",
    "source": "臺北市CCTV設施",
    "sourceAgency": "臺北市政府交通局交通管制工程處"
  },
  {
    "id": "traffic-cctv-251",
    "layer": "traffic_cctv",
    "sourceSequenceNumber": 251,
    "city": "臺北市",
    "cameraLocationCodeRaw": "259-重慶北路-民權西路口",
    "cameraLocationCode": "259",
    "locationDescription": "重慶北路-民權西路口",
    "longitude": 121.5138,
    "latitude": 25.06315,
    "coordinateStatus": "valid",
    "source": "臺北市CCTV設施",
    "sourceAgency": "臺北市政府交通局交通管制工程處"
  },
  {
    "id": "traffic-cctv-252",
    "layer": "traffic_cctv",
    "sourceSequenceNumber": 252,
    "city": "臺北市",
    "cameraLocationCodeRaw": "260-重慶南路-和平西路口",
    "cameraLocationCode": "260",
    "locationDescription": "重慶南路-和平西路口",
    "longitude": 121.5159,
    "latitude": 25.02748,
    "coordinateStatus": "valid",
    "source": "臺北市CCTV設施",
    "sourceAgency": "臺北市政府交通局交通管制工程處"
  },
  {
    "id": "traffic-cctv-253",
    "layer": "traffic_cctv",
    "sourceSequenceNumber": 253,
    "city": "臺北市",
    "cameraLocationCodeRaw": "261-市民高架-西寧北路",
    "cameraLocationCode": "261",
    "locationDescription": "市民高架-西寧北路",
    "longitude": 121.50812,
    "latitude": 25.05043,
    "coordinateStatus": "valid",
    "source": "臺北市CCTV設施",
    "sourceAgency": "臺北市政府交通局交通管制工程處"
  },
  {
    "id": "traffic-cctv-254",
    "layer": "traffic_cctv",
    "sourceSequenceNumber": 254,
    "city": "臺北市",
    "cameraLocationCodeRaw": "262-忠孝東路-復興南路口",
    "cameraLocationCode": "262",
    "locationDescription": "忠孝東路-復興南路口",
    "longitude": 121.54393,
    "latitude": 25.0415,
    "coordinateStatus": "valid",
    "source": "臺北市CCTV設施",
    "sourceAgency": "臺北市政府交通局交通管制工程處"
  },
  {
    "id": "traffic-cctv-255",
    "layer": "traffic_cctv",
    "sourceSequenceNumber": 255,
    "city": "臺北市",
    "cameraLocationCodeRaw": "263-中華路-愛國西路口",
    "cameraLocationCode": "263",
    "locationDescription": "中華路-愛國西路口",
    "longitude": 121.50703,
    "latitude": 25.0373,
    "coordinateStatus": "valid",
    "source": "臺北市CCTV設施",
    "sourceAgency": "臺北市政府交通局交通管制工程處"
  },
  {
    "id": "traffic-cctv-256",
    "layer": "traffic_cctv",
    "sourceSequenceNumber": 256,
    "city": "臺北市",
    "cameraLocationCodeRaw": "264-基隆路-和平東路口",
    "cameraLocationCode": "264",
    "locationDescription": "基隆路-和平東路口",
    "longitude": 121.55259,
    "latitude": 25.02441,
    "coordinateStatus": "valid",
    "source": "臺北市CCTV設施",
    "sourceAgency": "臺北市政府交通局交通管制工程處"
  },